{
"type": "FeatureCollection",
"name": "hotosm_cze_railways_points_geojson",
"features": [
{ "type": "Feature", "properties": { "name": "Zliv", "name:en": null, "railway": "station", "ele": null, "operator:type": null, "layer": null, "addr:full": null, "addr:city": null, "source": null, "name:cs": null, "name:sk": null, "osm_id": 265980341, "osm_type": "nodes" }, "geometry": { "type": "Point", "coordinates": [ 14.3622816, 49.0650593 ] } },
{ "type": "Feature", "properties": { "name": "Hluboká nad Vltavou", "name:en": null, "railway": "station", "ele": null, "operator:type": null, "layer": null, "addr:full": null, "addr:city": null, "source": null, "name:cs": "Hluboká nad Vltavou", "name:sk": null, "osm_id": 3366574342, "osm_type": "nodes" }, "geometry": { "type": "Point", "coordinates": [ 14.4202021, 49.0324904 ] } },
{ "type": "Feature", "properties": { "name": "Božejovice", "name:en": null, "railway": "station", "ele": null, "operator:type": null, "layer": null, "addr:full": null, "addr:city": null, "source": null, "name:cs": null, "name:sk": null, "osm_id": 306693496, "osm_type": "nodes" }, "geometry": { "type": "Point", "coordinates": [ 14.492584, 49.4477842 ] } },
{ "type": "Feature", "properties": { "name": "Branice", "name:en": null, "railway": "station", "ele": null, "operator:type": null, "layer": null, "addr:full": null, "addr:city": null, "source": null, "name:cs": null, "name:sk": null, "osm_id": 306693768, "osm_type": "nodes" }, "geometry": { "type": "Point", "coordinates": [ 14.3461687, 49.4030764 ] } },
{ "type": "Feature", "properties": { "name": "Český Krumlov", "name:en": null, "railway": "station", "ele": "542", "operator:type": null, "layer": null, "addr:full": null, "addr:city": null, "source": null, "name:cs": null, "name:sk": null, "osm_id": 4294224867, "osm_type": "nodes" }, "geometry": { "type": "Point", "coordinates": [ 14.3170566, 48.8223895 ] } },
{ "type": "Feature", "properties": { "name": "Náchod", "name:en": null, "railway": "station", "ele": null, "operator:type": null, "layer": null, "addr:full": null, "addr:city": null, "source": null, "name:cs": null, "name:sk": null, "osm_id": 6681588937, "osm_type": "nodes" }, "geometry": { "type": "Point", "coordinates": [ 16.1716375, 50.4174334 ] } },
{ "type": "Feature", "properties": { "name": "Křemže", "name:en": null, "railway": "station", "ele": null, "operator:type": null, "layer": null, "addr:full": null, "addr:city": null, "source": null, "name:cs": null, "name:sk": null, "osm_id": 6824901325, "osm_type": "nodes" }, "geometry": { "type": "Point", "coordinates": [ 14.3313357, 48.9046346 ] } },
{ "type": "Feature", "properties": { "name": "Temelín", "name:en": null, "railway": "station", "ele": "490", "operator:type": null, "layer": null, "addr:full": null, "addr:city": null, "source": null, "name:cs": null, "name:sk": null, "osm_id": 274863881, "osm_type": "nodes" }, "geometry": { "type": "Point", "coordinates": [ 14.3465591, 49.1956571 ] } },
{ "type": "Feature", "properties": { "name": "Týn nad Vltavou", "name:en": null, "railway": "station", "ele": null, "operator:type": null, "layer": null, "addr:full": null, "addr:city": null, "source": null, "name:cs": null, "name:sk": null, "osm_id": 5673497187, "osm_type": "nodes" }, "geometry": { "type": "Point", "coordinates": [ 14.4083179, 49.2232025 ] } },
{ "type": "Feature", "properties": { "name": "Plzeň-Křimice", "name:en": null, "railway": "station", "ele": null, "operator:type": null, "layer": null, "addr:full": null, "addr:city": null, "source": null, "name:cs": "Plzeň-Křimice", "name:sk": null, "osm_id": 24597612, "osm_type": "nodes" }, "geometry": { "type": "Point", "coordinates": [ 13.3036353, 49.7516069 ] } },
{ "type": "Feature", "properties": { "name": "Hýskov", "name:en": null, "railway": "station", "ele": null, "operator:type": null, "layer": null, "addr:full": null, "addr:city": null, "source": null, "name:cs": null, "name:sk": null, "osm_id": 686578798, "osm_type": "nodes" }, "geometry": { "type": "Point", "coordinates": [ 14.0448341, 49.9888327 ] } },
{ "type": "Feature", "properties": { "name": "Staňkov", "name:en": null, "railway": "station", "ele": null, "operator:type": null, "layer": null, "addr:full": null, "addr:city": null, "source": null, "name:cs": "Staňkov", "name:sk": null, "osm_id": 948377477, "osm_type": "nodes" }, "geometry": { "type": "Point", "coordinates": [ 13.0718102, 49.5476106 ] } },
{ "type": "Feature", "properties": { "name": "Lužany", "name:en": null, "railway": "station", "ele": null, "operator:type": null, "layer": null, "addr:full": null, "addr:city": null, "source": null, "name:cs": null, "name:sk": null, "osm_id": 307396996, "osm_type": "nodes" }, "geometry": { "type": "Point", "coordinates": [ 13.3145559, 49.5480702 ] } },
{ "type": "Feature", "properties": { "name": "Liběšice", "name:en": null, "railway": "station", "ele": null, "operator:type": null, "layer": null, "addr:full": null, "addr:city": null, "source": null, "name:cs": null, "name:sk": null, "osm_id": 477231270, "osm_type": "nodes" }, "geometry": { "type": "Point", "coordinates": [ 14.2855277, 50.5721867 ] } },
{ "type": "Feature", "properties": { "name": "Skuteč", "name:en": null, "railway": "station", "ele": null, "operator:type": null, "layer": null, "addr:full": null, "addr:city": null, "source": null, "name:cs": null, "name:sk": null, "osm_id": 5316917077, "osm_type": "nodes" }, "geometry": { "type": "Point", "coordinates": [ 15.9951899, 49.837651 ] } },
{ "type": "Feature", "properties": { "name": "Františkov nad Ploučnicí", "name:en": null, "railway": "station", "ele": null, "operator:type": null, "layer": null, "addr:full": null, "addr:city": null, "source": null, "name:cs": null, "name:sk": null, "osm_id": 264509093, "osm_type": "nodes" }, "geometry": { "type": "Point", "coordinates": [ 14.3318796, 50.7239244 ] } },
{ "type": "Feature", "properties": { "name": "Polepy", "name:en": null, "railway": "station", "ele": null, "operator:type": null, "layer": null, "addr:full": null, "addr:city": null, "source": null, "name:cs": null, "name:sk": null, "osm_id": 5651318540, "osm_type": "nodes" }, "geometry": { "type": "Point", "coordinates": [ 14.267621, 50.5109793 ] } },
{ "type": "Feature", "properties": { "name": "Libčice nad Vltavou", "name:en": null, "railway": "station", "ele": null, "operator:type": null, "layer": null, "addr:full": null, "addr:city": null, "source": null, "name:cs": null, "name:sk": null, "osm_id": 5262567553, "osm_type": "nodes" }, "geometry": { "type": "Point", "coordinates": [ 14.3644193, 50.1997801 ] } },
{ "type": "Feature", "properties": { "name": "Kynšperk nad Ohří", "name:en": null, "railway": "station", "ele": null, "operator:type": null, "layer": null, "addr:full": null, "addr:city": null, "source": null, "name:cs": "Kynšperk nad Ohří", "name:sk": null, "osm_id": 660557689, "osm_type": "nodes" }, "geometry": { "type": "Point", "coordinates": [ 12.5193929, 50.1257925 ] } },
{ "type": "Feature", "properties": { "name": "Hřebeny", "name:en": null, "railway": "station", "ele": null, "operator:type": null, "layer": null, "addr:full": null, "addr:city": null, "source": null, "name:cs": null, "name:sk": null, "osm_id": 2431832269, "osm_type": "nodes" }, "geometry": { "type": "Point", "coordinates": [ 12.5809142, 50.2218234 ] } },
{ "type": "Feature", "properties": { "name": "Oloví", "name:en": null, "railway": "station", "ele": null, "operator:type": null, "layer": null, "addr:full": null, "addr:city": null, "source": null, "name:cs": "Oloví", "name:sk": null, "osm_id": 10294164372, "osm_type": "nodes" }, "geometry": { "type": "Point", "coordinates": [ 12.5583055, 50.2546292 ] } },
{ "type": "Feature", "properties": { "name": "Svatava zastávka", "name:en": null, "railway": "station", "ele": null, "operator:type": null, "layer": null, "addr:full": null, "addr:city": null, "source": null, "name:cs": "Svatava zastávka", "name:sk": null, "osm_id": 10294164375, "osm_type": "nodes" }, "geometry": { "type": "Point", "coordinates": [ 12.6072461, 50.1974358 ] } },
{ "type": "Feature", "properties": { "name": "Kraslice", "name:en": null, "railway": "station", "ele": null, "operator:type": null, "layer": null, "addr:full": null, "addr:city": null, "source": null, "name:cs": "Kraslice", "name:sk": null, "osm_id": 6532116689, "osm_type": "nodes" }, "geometry": { "type": "Point", "coordinates": [ 12.5027932, 50.3306307 ] } },
{ "type": "Feature", "properties": { "name": "Potůčky", "name:en": null, "railway": "station", "ele": null, "operator:type": null, "layer": null, "addr:full": null, "addr:city": null, "source": null, "name:cs": null, "name:sk": null, "osm_id": 617952105, "osm_type": "nodes" }, "geometry": { "type": "Point", "coordinates": [ 12.7386109, 50.430319 ] } },
{ "type": "Feature", "properties": { "name": "Pernink", "name:en": null, "railway": "station", "ele": null, "operator:type": null, "layer": null, "addr:full": null, "addr:city": null, "source": null, "name:cs": null, "name:sk": null, "osm_id": 4994018902, "osm_type": "nodes" }, "geometry": { "type": "Point", "coordinates": [ 12.7733627, 50.3655849 ] } },
{ "type": "Feature", "properties": { "name": "Planá u Mariánských Lázní", "name:en": null, "railway": "station", "ele": null, "operator:type": null, "layer": null, "addr:full": null, "addr:city": null, "source": null, "name:cs": null, "name:sk": null, "osm_id": 6373607246, "osm_type": "nodes" }, "geometry": { "type": "Point", "coordinates": [ 12.7303247, 49.8611351 ] } },
{ "type": "Feature", "properties": { "name": "Kraslice předměstí", "name:en": null, "railway": "station", "ele": null, "operator:type": null, "layer": null, "addr:full": null, "addr:city": null, "source": null, "name:cs": "Kraslice předměstí", "name:sk": null, "osm_id": 10294164368, "osm_type": "nodes" }, "geometry": { "type": "Point", "coordinates": [ 12.5188418, 50.3117689 ] } },
{ "type": "Feature", "properties": { "name": "Luby u Chebu", "name:en": null, "railway": "station", "ele": null, "operator:type": null, "layer": null, "addr:full": null, "addr:city": null, "source": null, "name:cs": null, "name:sk": null, "osm_id": 61334711, "osm_type": "nodes" }, "geometry": { "type": "Point", "coordinates": [ 12.4009097, 50.2534352 ] } },
{ "type": "Feature", "properties": { "name": "Nová Role", "name:en": null, "railway": "station", "ele": null, "operator:type": null, "layer": null, "addr:full": null, "addr:city": null, "source": null, "name:cs": null, "name:sk": null, "osm_id": 34108542, "osm_type": "nodes" }, "geometry": { "type": "Point", "coordinates": [ 12.780019, 50.2736039 ] } },
{ "type": "Feature", "properties": { "name": "Kateřina", "name:en": null, "railway": "station", "ele": null, "operator:type": null, "layer": null, "addr:full": null, "addr:city": null, "source": null, "name:cs": null, "name:sk": null, "osm_id": 9853897019, "osm_type": "nodes" }, "geometry": { "type": "Point", "coordinates": [ 12.4036234, 50.1581648 ] } },
{ "type": "Feature", "properties": { "name": "Svatava", "name:en": null, "railway": "station", "ele": null, "operator:type": null, "layer": null, "addr:full": null, "addr:city": null, "source": null, "name:cs": "Svatava", "name:sk": null, "osm_id": 10294164376, "osm_type": "nodes" }, "geometry": { "type": "Point", "coordinates": [ 12.6247763, 50.1902036 ] } },
{ "type": "Feature", "properties": { "name": "Nové Hamry", "name:en": null, "railway": "station", "ele": null, "operator:type": null, "layer": null, "addr:full": null, "addr:city": null, "source": null, "name:cs": null, "name:sk": null, "osm_id": 48872222, "osm_type": "nodes" }, "geometry": { "type": "Point", "coordinates": [ 12.7194219, 50.3570952 ] } },
{ "type": "Feature", "properties": { "name": "Valy u Mariánských Lázní", "name:en": null, "railway": "station", "ele": null, "operator:type": null, "layer": null, "addr:full": null, "addr:city": null, "source": null, "name:cs": null, "name:sk": null, "osm_id": 24585047, "osm_type": "nodes" }, "geometry": { "type": "Point", "coordinates": [ 12.6659359, 49.9768724 ] } },
{ "type": "Feature", "properties": { "name": "Soos", "name:en": null, "railway": "station", "ele": null, "operator:type": null, "layer": null, "addr:full": null, "addr:city": null, "source": null, "name:cs": null, "name:sk": null, "osm_id": 9853897021, "osm_type": "nodes" }, "geometry": { "type": "Point", "coordinates": [ 12.402927, 50.1455175 ] } },
{ "type": "Feature", "properties": { "name": "Běšiny", "name:en": null, "railway": "station", "ele": null, "operator:type": null, "layer": null, "addr:full": null, "addr:city": null, "source": null, "name:cs": null, "name:sk": null, "osm_id": 226384109, "osm_type": "nodes" }, "geometry": { "type": "Point", "coordinates": [ 13.3032631, 49.304755 ] } },
{ "type": "Feature", "properties": { "name": "Nejdek", "name:en": null, "railway": "station", "ele": null, "operator:type": null, "layer": null, "addr:full": null, "addr:city": null, "source": null, "name:cs": null, "name:sk": null, "osm_id": 980956659, "osm_type": "nodes" }, "geometry": { "type": "Point", "coordinates": [ 12.7275874, 50.3190694 ] } },
{ "type": "Feature", "properties": { "name": "Ústí nad Labem hlavní nádraží", "name:en": null, "railway": "station", "ele": null, "operator:type": null, "layer": null, "addr:full": null, "addr:city": null, "source": null, "name:cs": null, "name:sk": null, "osm_id": 4171354660, "osm_type": "nodes" }, "geometry": { "type": "Point", "coordinates": [ 14.0445164, 50.6594342 ] } },
{ "type": "Feature", "properties": { "name": "Rychnov u Jablonce nad Nisou", "name:en": null, "railway": "station", "ele": null, "operator:type": null, "layer": null, "addr:full": null, "addr:city": null, "source": null, "name:cs": null, "name:sk": null, "osm_id": 280987217, "osm_type": "nodes" }, "geometry": { "type": "Point", "coordinates": [ 15.1441552, 50.6839106 ] } },
{ "type": "Feature", "properties": { "name": "Kolinec", "name:en": null, "railway": "station", "ele": null, "operator:type": null, "layer": null, "addr:full": null, "addr:city": null, "source": null, "name:cs": null, "name:sk": null, "osm_id": 226383564, "osm_type": "nodes" }, "geometry": { "type": "Point", "coordinates": [ 13.4358261, 49.2951753 ] } },
{ "type": "Feature", "properties": { "name": "Kadaň-Prunéřov", "name:en": null, "railway": "station", "ele": null, "operator:type": null, "layer": null, "addr:full": null, "addr:city": null, "source": null, "name:cs": null, "name:sk": null, "osm_id": 33614550, "osm_type": "nodes" }, "geometry": { "type": "Point", "coordinates": [ 13.2587106, 50.4117 ] } },
{ "type": "Feature", "properties": { "name": "Vejprty", "name:en": null, "railway": "station", "ele": null, "operator:type": null, "layer": null, "addr:full": null, "addr:city": null, "source": null, "name:cs": null, "name:sk": null, "osm_id": 309134496, "osm_type": "nodes" }, "geometry": { "type": "Point", "coordinates": [ 13.0338317, 50.5007023 ] } },
{ "type": "Feature", "properties": { "name": "Bohušovice nad Ohří", "name:en": null, "railway": "station", "ele": null, "operator:type": null, "layer": null, "addr:full": null, "addr:city": null, "source": null, "name:cs": null, "name:sk": null, "osm_id": 24700200, "osm_type": "nodes" }, "geometry": { "type": "Point", "coordinates": [ 14.1494553, 50.4913108 ] } },
{ "type": "Feature", "properties": { "name": "Litvínov", "name:en": null, "railway": "station", "ele": null, "operator:type": null, "layer": null, "addr:full": null, "addr:city": null, "source": null, "name:cs": null, "name:sk": null, "osm_id": 1994334010, "osm_type": "nodes" }, "geometry": { "type": "Point", "coordinates": [ 13.6101926, 50.5930693 ] } },
{ "type": "Feature", "properties": { "name": "Třebenice", "name:en": null, "railway": "station", "ele": null, "operator:type": null, "layer": null, "addr:full": null, "addr:city": null, "source": null, "name:cs": null, "name:sk": null, "osm_id": 293785449, "osm_type": "nodes" }, "geometry": { "type": "Point", "coordinates": [ 14.0011552, 50.4739725 ] } },
{ "type": "Feature", "properties": { "name": "Úpořiny", "name:en": null, "railway": "station", "ele": null, "operator:type": null, "layer": null, "addr:full": null, "addr:city": null, "source": null, "name:cs": null, "name:sk": null, "osm_id": 213956618, "osm_type": "nodes" }, "geometry": { "type": "Point", "coordinates": [ 13.8784995, 50.6092558 ] } },
{ "type": "Feature", "properties": { "name": "Trmice", "name:en": null, "railway": "station", "ele": null, "operator:type": null, "layer": null, "addr:full": null, "addr:city": null, "source": null, "name:cs": "Trmice", "name:sk": null, "osm_id": 869305607, "osm_type": "nodes" }, "geometry": { "type": "Point", "coordinates": [ 13.9869951, 50.6474906 ] } },
{ "type": "Feature", "properties": { "name": "Mutějovice", "name:en": null, "railway": "station", "ele": null, "operator:type": null, "layer": null, "addr:full": null, "addr:city": null, "source": null, "name:cs": null, "name:sk": null, "osm_id": 981387181, "osm_type": "nodes" }, "geometry": { "type": "Point", "coordinates": [ 13.7045015, 50.2171284 ] } },
{ "type": "Feature", "properties": { "name": "Třebívlice", "name:en": null, "railway": "station", "ele": null, "operator:type": null, "layer": null, "addr:full": null, "addr:city": "Třebívlice", "source": null, "name:cs": null, "name:sk": null, "osm_id": 225071317, "osm_type": "nodes" }, "geometry": { "type": "Point", "coordinates": [ 13.9082217, 50.4577229 ] } },
{ "type": "Feature", "properties": { "name": "Žatec", "name:en": null, "railway": "station", "ele": null, "operator:type": null, "layer": null, "addr:full": null, "addr:city": null, "source": null, "name:cs": null, "name:sk": null, "osm_id": 1993027961, "osm_type": "nodes" }, "geometry": { "type": "Point", "coordinates": [ 13.5551662, 50.3365927 ] } },
{ "type": "Feature", "properties": { "name": "Niederschlag", "name:en": null, "railway": "station", "ele": null, "operator:type": null, "layer": null, "addr:full": null, "addr:city": null, "source": null, "name:cs": null, "name:sk": null, "osm_id": 9138692956, "osm_type": "nodes" }, "geometry": { "type": "Point", "coordinates": [ 13.0144829, 50.4638827 ] } },
{ "type": "Feature", "properties": { "name": "Mšené Lázně", "name:en": null, "railway": "station", "ele": null, "operator:type": null, "layer": null, "addr:full": null, "addr:city": null, "source": null, "name:cs": null, "name:sk": null, "osm_id": 293576913, "osm_type": "nodes" }, "geometry": { "type": "Point", "coordinates": [ 14.1330149, 50.3616543 ] } },
{ "type": "Feature", "properties": { "name": "Hostivice", "name:en": null, "railway": "station", "ele": null, "operator:type": null, "layer": null, "addr:full": null, "addr:city": null, "source": null, "name:cs": "Hostivice", "name:sk": null, "osm_id": 5648205333, "osm_type": "nodes" }, "geometry": { "type": "Point", "coordinates": [ 14.2583767, 50.0840255 ] } },
{ "type": "Feature", "properties": { "name": "Praha-Ruzyně", "name:en": null, "railway": "station", "ele": null, "operator:type": null, "layer": null, "addr:full": null, "addr:city": null, "source": null, "name:cs": null, "name:sk": null, "osm_id": 713572229, "osm_type": "nodes" }, "geometry": { "type": "Point", "coordinates": [ 14.3121812, 50.0841721 ] } },
{ "type": "Feature", "properties": { "name": "Dolejší Hůrky", "name:en": null, "railway": "station", "ele": null, "operator:type": null, "layer": null, "addr:full": null, "addr:city": null, "source": null, "name:cs": null, "name:sk": null, "osm_id": 10611754259, "osm_type": "nodes" }, "geometry": { "type": "Point", "coordinates": [ 13.6282821, 50.3400857 ] } },
{ "type": "Feature", "properties": { "name": "Oberwiesenthal", "name:en": null, "railway": "station", "ele": null, "operator:type": null, "layer": null, "addr:full": null, "addr:city": null, "source": null, "name:cs": null, "name:sk": null, "osm_id": 5713379264, "osm_type": "nodes" }, "geometry": { "type": "Point", "coordinates": [ 12.9717945, 50.4212303 ] } },
{ "type": "Feature", "properties": { "name": "Hammerunterwiesenthal", "name:en": null, "railway": "station", "ele": null, "operator:type": null, "layer": null, "addr:full": null, "addr:city": null, "source": null, "name:cs": null, "name:sk": null, "osm_id": 9138692955, "osm_type": "nodes" }, "geometry": { "type": "Point", "coordinates": [ 13.0087348, 50.4411468 ] } },
{ "type": "Feature", "properties": { "name": "Hrobce", "name:en": null, "railway": "station", "ele": null, "operator:type": null, "layer": null, "addr:full": null, "addr:city": null, "source": null, "name:cs": null, "name:sk": null, "osm_id": 5678344751, "osm_type": "nodes" }, "geometry": { "type": "Point", "coordinates": [ 14.2297566, 50.4581025 ] } },
{ "type": "Feature", "properties": { "name": "Kryry", "name:en": null, "railway": "station", "ele": null, "operator:type": null, "layer": null, "addr:full": null, "addr:city": null, "source": null, "name:cs": null, "name:sk": null, "osm_id": 208518623, "osm_type": "nodes" }, "geometry": { "type": "Point", "coordinates": [ 13.4228016, 50.1688278 ] } },
{ "type": "Feature", "properties": { "name": "Řehlovice", "name:en": null, "railway": "station", "ele": null, "operator:type": null, "layer": null, "addr:full": null, "addr:city": null, "source": null, "name:cs": "Řehlovice", "name:sk": null, "osm_id": 869305611, "osm_type": "nodes" }, "geometry": { "type": "Point", "coordinates": [ 13.9548466, 50.6127089 ] } },
{ "type": "Feature", "properties": { "name": "Prackovice nad Labem", "name:en": null, "railway": "station", "ele": null, "operator:type": null, "layer": null, "addr:full": null, "addr:city": null, "source": null, "name:cs": null, "name:sk": null, "osm_id": 1996965939, "osm_type": "nodes" }, "geometry": { "type": "Point", "coordinates": [ 14.0363955, 50.5729651 ] } },
{ "type": "Feature", "properties": { "name": "Litoměřice horní nádraží", "name:en": null, "railway": "station", "ele": "185", "operator:type": null, "layer": null, "addr:full": null, "addr:city": null, "source": null, "name:cs": null, "name:sk": null, "osm_id": 1093838508, "osm_type": "nodes" }, "geometry": { "type": "Point", "coordinates": [ 14.1315997, 50.5410185 ] } },
{ "type": "Feature", "properties": { "name": "Ústí nad Labem-Střekov", "name:en": null, "railway": "station", "ele": null, "operator:type": null, "layer": null, "addr:full": null, "addr:city": null, "source": null, "name:cs": null, "name:sk": null, "osm_id": 24585362, "osm_type": "nodes" }, "geometry": { "type": "Point", "coordinates": [ 14.0485712, 50.6498817 ] } },
{ "type": "Feature", "properties": { "name": "Libochovice", "name:en": null, "railway": "station", "ele": "165", "operator:type": null, "layer": null, "addr:full": null, "addr:city": null, "source": null, "name:cs": null, "name:sk": null, "osm_id": 293772087, "osm_type": "nodes" }, "geometry": { "type": "Point", "coordinates": [ 14.054876, 50.4105323 ] } },
{ "type": "Feature", "properties": { "name": "Želina", "name:en": null, "railway": "station", "ele": null, "operator:type": null, "layer": null, "addr:full": null, "addr:city": null, "source": null, "name:cs": null, "name:sk": null, "osm_id": 208486433, "osm_type": "nodes" }, "geometry": { "type": "Point", "coordinates": [ 13.2856608, 50.3630878 ] } },
{ "type": "Feature", "properties": { "name": "Žihle", "name:en": null, "railway": "station", "ele": null, "operator:type": null, "layer": null, "addr:full": null, "addr:city": null, "source": null, "name:cs": null, "name:sk": null, "osm_id": 5659609176, "osm_type": "nodes" }, "geometry": { "type": "Point", "coordinates": [ 13.3628559, 50.0467626 ] } },
{ "type": "Feature", "properties": { "name": "Chyše", "name:en": null, "railway": "station", "ele": null, "operator:type": null, "layer": null, "addr:full": null, "addr:city": null, "source": null, "name:cs": null, "name:sk": null, "osm_id": 948937677, "osm_type": "nodes" }, "geometry": { "type": "Point", "coordinates": [ 13.2478464, 50.1111078 ] } },
{ "type": "Feature", "properties": { "name": "Kadaňský Rohozec", "name:en": null, "railway": "station", "ele": null, "operator:type": null, "layer": null, "addr:full": null, "addr:city": null, "source": null, "name:cs": null, "name:sk": null, "osm_id": 1009030850, "osm_type": "nodes" }, "geometry": { "type": "Point", "coordinates": [ 13.225575, 50.2836286 ] } },
{ "type": "Feature", "properties": { "name": "Štědrá", "name:en": null, "railway": "station", "ele": null, "operator:type": null, "layer": null, "addr:full": null, "addr:city": null, "source": null, "name:cs": null, "name:sk": null, "osm_id": 4321028487, "osm_type": "nodes" }, "geometry": { "type": "Point", "coordinates": [ 13.1196522, 50.0498767 ] } },
{ "type": "Feature", "properties": { "name": "Toužim", "name:en": null, "railway": "station", "ele": null, "operator:type": null, "layer": null, "addr:full": null, "addr:city": null, "source": null, "name:cs": null, "name:sk": null, "osm_id": 5665688192, "osm_type": "nodes" }, "geometry": { "type": "Point", "coordinates": [ 12.9912287, 50.0505438 ] } },
{ "type": "Feature", "properties": { "name": "Zbečno", "name:en": null, "railway": "station", "ele": null, "operator:type": null, "layer": null, "addr:full": null, "addr:city": null, "source": null, "name:cs": null, "name:sk": null, "osm_id": 3138382206, "osm_type": "nodes" }, "geometry": { "type": "Point", "coordinates": [ 13.9182811, 50.0357574 ] } },
{ "type": "Feature", "properties": { "name": "Osek", "name:en": null, "railway": "station", "ele": null, "operator:type": null, "layer": null, "addr:full": null, "addr:city": null, "source": null, "name:cs": null, "name:sk": null, "osm_id": 987531578, "osm_type": "nodes" }, "geometry": { "type": "Point", "coordinates": [ 13.7104135, 50.6143798 ] } },
{ "type": "Feature", "properties": { "name": "Klobuky v Čechách", "name:en": null, "railway": "station", "ele": null, "operator:type": null, "layer": null, "addr:full": null, "addr:city": "Klobuky", "source": "uhul:ortofoto", "name:cs": null, "name:sk": null, "osm_id": 289823072, "osm_type": "nodes" }, "geometry": { "type": "Point", "coordinates": [ 13.996593, 50.2981789 ] } },
{ "type": "Feature", "properties": { "name": "Světec", "name:en": null, "railway": "station", "ele": null, "operator:type": null, "layer": null, "addr:full": null, "addr:city": null, "source": null, "name:cs": null, "name:sk": null, "osm_id": 78901113, "osm_type": "nodes" }, "geometry": { "type": "Point", "coordinates": [ 13.7974833, 50.579009 ] } },
{ "type": "Feature", "properties": { "name": "Moldava v Krušných horách", "name:en": null, "railway": "station", "ele": null, "operator:type": null, "layer": null, "addr:full": null, "addr:city": null, "source": null, "name:cs": null, "name:sk": null, "osm_id": 215462461, "osm_type": "nodes" }, "geometry": { "type": "Point", "coordinates": [ 13.6913647, 50.7177908 ] } },
{ "type": "Feature", "properties": { "name": "Dalovice", "name:en": null, "railway": "station", "ele": null, "operator:type": null, "layer": null, "addr:full": null, "addr:city": null, "source": null, "name:cs": null, "name:sk": null, "osm_id": 280103508, "osm_type": "nodes" }, "geometry": { "type": "Point", "coordinates": [ 12.8865178, 50.2548093 ] } },
{ "type": "Feature", "properties": { "name": "Nové Strašecí", "name:en": null, "railway": "station", "ele": null, "operator:type": null, "layer": null, "addr:full": null, "addr:city": null, "source": null, "name:cs": null, "name:sk": null, "osm_id": 24600961, "osm_type": "nodes" }, "geometry": { "type": "Point", "coordinates": [ 13.8818114, 50.1520148 ] } },
{ "type": "Feature", "properties": { "name": "Žalhostice", "name:en": null, "railway": "station", "ele": null, "operator:type": null, "layer": null, "addr:full": null, "addr:city": null, "source": null, "name:cs": null, "name:sk": null, "osm_id": 214050264, "osm_type": "nodes" }, "geometry": { "type": "Point", "coordinates": [ 14.0964751, 50.5248713 ] } },
{ "type": "Feature", "properties": { "name": "Louka u Litvínova", "name:en": null, "railway": "station", "ele": null, "operator:type": null, "layer": null, "addr:full": null, "addr:city": null, "source": null, "name:cs": null, "name:sk": null, "osm_id": 269842361, "osm_type": "nodes" }, "geometry": { "type": "Point", "coordinates": [ 13.6312237, 50.5931046 ] } },
{ "type": "Feature", "properties": { "name": "Slaný", "name:en": null, "railway": "station", "ele": null, "operator:type": null, "layer": null, "addr:full": null, "addr:city": "Slaný", "source": null, "name:cs": null, "name:sk": null, "osm_id": 4045463905, "osm_type": "nodes" }, "geometry": { "type": "Point", "coordinates": [ 14.0758381, 50.2285219 ] } },
{ "type": "Feature", "properties": { "name": "Krásný Jez", "name:en": null, "railway": "station", "ele": null, "operator:type": null, "layer": null, "addr:full": null, "addr:city": null, "source": null, "name:cs": null, "name:sk": null, "osm_id": 34239858, "osm_type": "nodes" }, "geometry": { "type": "Point", "coordinates": [ 12.8481439, 50.1159184 ] } },
{ "type": "Feature", "properties": { "name": "Karlovy Vary-Březová", "name:en": null, "railway": "station", "ele": "455", "operator:type": null, "layer": null, "addr:full": null, "addr:city": null, "source": null, "name:cs": null, "name:sk": null, "osm_id": 34108635, "osm_type": "nodes" }, "geometry": { "type": "Point", "coordinates": [ 12.8375732, 50.2019579 ] } },
{ "type": "Feature", "properties": { "name": "Hájek", "name:en": null, "railway": "station", "ele": null, "operator:type": null, "layer": null, "addr:full": null, "addr:city": null, "source": null, "name:cs": null, "name:sk": null, "osm_id": 33441217, "osm_type": "nodes" }, "geometry": { "type": "Point", "coordinates": [ 12.93777, 50.2802268 ] } },
{ "type": "Feature", "properties": { "name": "Karlovy Vary", "name:en": null, "railway": "station", "ele": "415", "operator:type": null, "layer": null, "addr:full": null, "addr:city": null, "source": null, "name:cs": null, "name:sk": null, "osm_id": 264134637, "osm_type": "nodes" }, "geometry": { "type": "Point", "coordinates": [ 12.8666283, 50.2354503 ] } },
{ "type": "Feature", "properties": { "name": "Merklín", "name:en": null, "railway": "station", "ele": null, "operator:type": null, "layer": null, "addr:full": null, "addr:city": null, "source": null, "name:cs": null, "name:sk": null, "osm_id": 5688658840, "osm_type": "nodes" }, "geometry": { "type": "Point", "coordinates": [ 12.8651331, 50.3269119 ] } },
{ "type": "Feature", "properties": { "name": "Stochov", "name:en": null, "railway": "station", "ele": null, "operator:type": null, "layer": null, "addr:full": null, "addr:city": null, "source": null, "name:cs": null, "name:sk": null, "osm_id": 24589362, "osm_type": "nodes" }, "geometry": { "type": "Point", "coordinates": [ 13.9655452, 50.1412073 ] } },
{ "type": "Feature", "properties": { "name": "Stará louka", "name:en": null, "railway": "station", "ele": "389", "operator:type": null, "layer": null, "addr:full": null, "addr:city": null, "source": null, "name:cs": null, "name:sk": null, "osm_id": 292941512, "osm_type": "nodes" }, "geometry": { "type": "Point", "coordinates": [ 12.877856, 50.2199433 ] } },
{ "type": "Feature", "properties": { "name": "Obrnice", "name:en": null, "railway": "station", "ele": null, "operator:type": null, "layer": null, "addr:full": null, "addr:city": null, "source": null, "name:cs": null, "name:sk": null, "osm_id": 282680644, "osm_type": "nodes" }, "geometry": { "type": "Point", "coordinates": [ 13.7006822, 50.5042567 ] } },
{ "type": "Feature", "properties": { "name": "Protivec", "name:en": null, "railway": "station", "ele": null, "operator:type": null, "layer": null, "addr:full": null, "addr:city": null, "source": null, "name:cs": null, "name:sk": null, "osm_id": 5668769209, "osm_type": "nodes" }, "geometry": { "type": "Point", "coordinates": [ 13.2069553, 50.089499 ] } },
{ "type": "Feature", "properties": { "name": "Vojkovice nad Ohří", "name:en": null, "railway": "station", "ele": null, "operator:type": null, "layer": null, "addr:full": null, "addr:city": null, "source": null, "name:cs": null, "name:sk": null, "osm_id": 33614442, "osm_type": "nodes" }, "geometry": { "type": "Point", "coordinates": [ 13.0160014, 50.3073934 ] } },
{ "type": "Feature", "properties": { "name": "Dolní Žandov", "name:en": null, "railway": "station", "ele": null, "operator:type": null, "layer": null, "addr:full": null, "addr:city": null, "source": null, "name:cs": "Dolní Žandov", "name:sk": null, "osm_id": 2435352858, "osm_type": "nodes" }, "geometry": { "type": "Point", "coordinates": [ 12.5406836, 50.0117239 ] } },
{ "type": "Feature", "properties": { "name": "Hoštka", "name:en": null, "railway": "station", "ele": null, "operator:type": null, "layer": null, "addr:full": null, "addr:city": null, "source": null, "name:cs": null, "name:sk": null, "osm_id": 783447234, "osm_type": "nodes" }, "geometry": { "type": "Point", "coordinates": [ 14.3273827, 50.4915398 ] } },
{ "type": "Feature", "properties": { "name": "Lužná u Rakovníka", "name:en": null, "railway": "station", "ele": null, "operator:type": null, "layer": null, "addr:full": null, "addr:city": null, "source": null, "name:cs": null, "name:sk": null, "osm_id": 3921840691, "osm_type": "nodes" }, "geometry": { "type": "Point", "coordinates": [ 13.7702866, 50.1447934 ] } },
{ "type": "Feature", "properties": { "name": "Stará Role", "name:en": null, "railway": "station", "ele": null, "operator:type": null, "layer": null, "addr:full": null, "addr:city": null, "source": null, "name:cs": null, "name:sk": null, "osm_id": 980956522, "osm_type": "nodes" }, "geometry": { "type": "Point", "coordinates": [ 12.835814, 50.2457857 ] } },
{ "type": "Feature", "properties": { "name": "Jindřichovice pod Smrkem", "name:en": null, "railway": "station", "ele": null, "operator:type": null, "layer": null, "addr:full": null, "addr:city": null, "source": null, "name:cs": null, "name:sk": null, "osm_id": 5681072031, "osm_type": "nodes" }, "geometry": { "type": "Point", "coordinates": [ 15.2542012, 50.9587504 ] } },
{ "type": "Feature", "properties": { "name": "Kamenice nad Lipou", "name:en": null, "railway": "station", "ele": null, "operator:type": null, "layer": null, "addr:full": null, "addr:city": null, "source": null, "name:cs": null, "name:sk": null, "osm_id": 5685683780, "osm_type": "nodes" }, "geometry": { "type": "Point", "coordinates": [ 15.0747315, 49.2948536 ] } },
{ "type": "Feature", "properties": { "name": "Káranice", "name:en": null, "railway": "station", "ele": null, "operator:type": null, "layer": null, "addr:full": null, "addr:city": null, "source": null, "name:cs": null, "name:sk": null, "osm_id": 5664537967, "osm_type": "nodes" }, "geometry": { "type": "Point", "coordinates": [ 15.5612226, 50.155094 ] } },
{ "type": "Feature", "properties": { "name": "Zvoleněves", "name:en": null, "railway": "station", "ele": null, "operator:type": null, "layer": null, "addr:full": null, "addr:city": null, "source": null, "name:cs": null, "name:sk": null, "osm_id": 264573384, "osm_type": "nodes" }, "geometry": { "type": "Point", "coordinates": [ 14.183929, 50.2306026 ] } },
{ "type": "Feature", "properties": { "name": "Schirnding", "name:en": null, "railway": "station", "ele": null, "operator:type": null, "layer": null, "addr:full": null, "addr:city": "Schirnding", "source": null, "name:cs": null, "name:sk": null, "osm_id": 4519161689, "osm_type": "nodes" }, "geometry": { "type": "Point", "coordinates": [ 12.2294033, 50.07731 ] } },
{ "type": "Feature", "properties": { "name": "Ostrava-Kunčice", "name:en": null, "railway": "station", "ele": null, "operator:type": null, "layer": null, "addr:full": null, "addr:city": null, "source": null, "name:cs": null, "name:sk": null, "osm_id": 3259758511, "osm_type": "nodes" }, "geometry": { "type": "Point", "coordinates": [ 18.2914756, 49.7906823 ] } },
{ "type": "Feature", "properties": { "name": "Ostrava-Bartovice", "name:en": null, "railway": "station", "ele": null, "operator:type": null, "layer": null, "addr:full": null, "addr:city": null, "source": null, "name:cs": null, "name:sk": null, "osm_id": 3261711044, "osm_type": "nodes" }, "geometry": { "type": "Point", "coordinates": [ 18.3402045, 49.7789624 ] } },
{ "type": "Feature", "properties": { "name": "Ostrava-Vítkovice", "name:en": null, "railway": "station", "ele": null, "operator:type": null, "layer": null, "addr:full": null, "addr:city": null, "source": null, "name:cs": null, "name:sk": null, "osm_id": 3261711045, "osm_type": "nodes" }, "geometry": { "type": "Point", "coordinates": [ 18.2623663, 49.8015472 ] } },
{ "type": "Feature", "properties": { "name": "Ostrava střed", "name:en": null, "railway": "station", "ele": null, "operator:type": null, "layer": null, "addr:full": null, "addr:city": null, "source": null, "name:cs": null, "name:sk": null, "osm_id": 3259758510, "osm_type": "nodes" }, "geometry": { "type": "Point", "coordinates": [ 18.2829085, 49.8291071 ] } },
{ "type": "Feature", "properties": { "name": "Město Albrechtice", "name:en": null, "railway": "station", "ele": null, "operator:type": null, "layer": null, "addr:full": null, "addr:city": null, "source": null, "name:cs": null, "name:sk": null, "osm_id": 5654594748, "osm_type": "nodes" }, "geometry": { "type": "Point", "coordinates": [ 17.5786238, 50.1681255 ] } },
{ "type": "Feature", "properties": { "name": "Nedvědice", "name:en": null, "railway": "station", "ele": "311", "operator:type": null, "layer": null, "addr:full": null, "addr:city": null, "source": null, "name:cs": null, "name:sk": null, "osm_id": 4330649927, "osm_type": "nodes" }, "geometry": { "type": "Point", "coordinates": [ 16.3359275, 49.4544552 ] } },
{ "type": "Feature", "properties": { "name": "Nové Město na Moravě", "name:en": null, "railway": "station", "ele": "615", "operator:type": null, "layer": null, "addr:full": null, "addr:city": null, "source": null, "name:cs": null, "name:sk": null, "osm_id": 5320759174, "osm_type": "nodes" }, "geometry": { "type": "Point", "coordinates": [ 16.0803386, 49.5685819 ] } },
{ "type": "Feature", "properties": { "name": "Rožná", "name:en": null, "railway": "station", "ele": null, "operator:type": null, "layer": null, "addr:full": null, "addr:city": null, "source": null, "name:cs": null, "name:sk": null, "osm_id": 5320759179, "osm_type": "nodes" }, "geometry": { "type": "Point", "coordinates": [ 16.2453099, 49.4728659 ] } },
{ "type": "Feature", "properties": { "name": "Velká Bystřice", "name:en": null, "railway": "station", "ele": null, "operator:type": null, "layer": null, "addr:full": null, "addr:city": null, "source": null, "name:cs": null, "name:sk": null, "osm_id": 5661607882, "osm_type": "nodes" }, "geometry": { "type": "Point", "coordinates": [ 17.3450813, 49.5934432 ] } },
{ "type": "Feature", "properties": { "name": "Březnice Odb.Výh.101", "name:en": null, "railway": "station", "ele": null, "operator:type": null, "layer": null, "addr:full": null, "addr:city": null, "source": null, "name:cs": null, "name:sk": null, "osm_id": 10611698343, "osm_type": "nodes" }, "geometry": { "type": "Point", "coordinates": [ 13.952051, 49.5755573 ] } },
{ "type": "Feature", "properties": { "name": "Butoves", "name:en": null, "railway": "station", "ele": null, "operator:type": null, "layer": null, "addr:full": null, "addr:city": null, "source": null, "name:cs": null, "name:sk": null, "osm_id": 273042027, "osm_type": "nodes" }, "geometry": { "type": "Point", "coordinates": [ 15.4249049, 50.3881112 ] } },
{ "type": "Feature", "properties": { "name": "Litovel předměstí", "name:en": null, "railway": "station", "ele": "235", "operator:type": null, "layer": null, "addr:full": null, "addr:city": null, "source": null, "name:cs": null, "name:sk": null, "osm_id": 3074542933, "osm_type": "nodes" }, "geometry": { "type": "Point", "coordinates": [ 17.0713309, 49.6941411 ] } },
{ "type": "Feature", "properties": { "name": "Červenka", "name:en": null, "railway": "station", "ele": "235", "operator:type": null, "layer": null, "addr:full": null, "addr:city": null, "source": null, "name:cs": null, "name:sk": null, "osm_id": 5652207529, "osm_type": "nodes" }, "geometry": { "type": "Point", "coordinates": [ 17.0913195, 49.7239841 ] } },
{ "type": "Feature", "properties": { "name": "Bylnice", "name:en": null, "railway": "station", "ele": null, "operator:type": null, "layer": null, "addr:full": null, "addr:city": null, "source": null, "name:cs": null, "name:sk": null, "osm_id": 282570753, "osm_type": "nodes" }, "geometry": { "type": "Point", "coordinates": [ 18.0138828, 49.067643 ] } },
{ "type": "Feature", "properties": { "name": "Hlubočky-Mariánské Údolí", "name:en": null, "railway": "station", "ele": null, "operator:type": null, "layer": null, "addr:full": null, "addr:city": null, "source": null, "name:cs": null, "name:sk": null, "osm_id": 5661607881, "osm_type": "nodes" }, "geometry": { "type": "Point", "coordinates": [ 17.3946629, 49.6130341 ] } },
{ "type": "Feature", "properties": { "name": "Rousínov", "name:en": null, "railway": "station", "ele": "245", "operator:type": null, "layer": null, "addr:full": null, "addr:city": null, "source": "survey", "name:cs": null, "name:sk": null, "osm_id": 3305512302, "osm_type": "nodes" }, "geometry": { "type": "Point", "coordinates": [ 16.8678616, 49.1971086 ] } },
{ "type": "Feature", "properties": { "name": "Jaroměřice nad Rokytnou", "name:en": null, "railway": "station", "ele": "440", "operator:type": null, "layer": null, "addr:full": null, "addr:city": null, "source": null, "name:cs": null, "name:sk": null, "osm_id": 5294461215, "osm_type": "nodes" }, "geometry": { "type": "Point", "coordinates": [ 15.8653951, 49.0942008 ] } },
{ "type": "Feature", "properties": { "name": "Vojtanov", "name:en": null, "railway": "station", "ele": null, "operator:type": null, "layer": null, "addr:full": null, "addr:city": null, "source": null, "name:cs": null, "name:sk": null, "osm_id": 10570056289, "osm_type": "nodes" }, "geometry": { "type": "Point", "coordinates": [ 12.3276742, 50.1676174 ] } },
{ "type": "Feature", "properties": { "name": "Dasnice", "name:en": null, "railway": "station", "ele": null, "operator:type": null, "layer": null, "addr:full": null, "addr:city": null, "source": null, "name:cs": null, "name:sk": null, "osm_id": 256479502, "osm_type": "nodes" }, "geometry": { "type": "Point", "coordinates": [ 12.5673119, 50.1396564 ] } },
{ "type": "Feature", "properties": { "name": "Litice nad Orlicí", "name:en": null, "railway": "station", "ele": null, "operator:type": null, "layer": null, "addr:full": null, "addr:city": null, "source": null, "name:cs": null, "name:sk": null, "osm_id": 305573889, "osm_type": "nodes" }, "geometry": { "type": "Point", "coordinates": [ 16.3578143, 50.086985 ] } },
{ "type": "Feature", "properties": { "name": "Žamberk", "name:en": null, "railway": "station", "ele": "420", "operator:type": null, "layer": null, "addr:full": null, "addr:city": null, "source": null, "name:cs": null, "name:sk": null, "osm_id": 305883506, "osm_type": "nodes" }, "geometry": { "type": "Point", "coordinates": [ 16.4499536, 50.0738011 ] } },
{ "type": "Feature", "properties": { "name": "Čermná nad Orlicí", "name:en": null, "railway": "station", "ele": null, "operator:type": null, "layer": null, "addr:full": null, "addr:city": null, "source": null, "name:cs": null, "name:sk": null, "osm_id": 269730947, "osm_type": "nodes" }, "geometry": { "type": "Point", "coordinates": [ 16.1358466, 50.0648063 ] } },
{ "type": "Feature", "properties": { "name": "Vamberk", "name:en": null, "railway": "station", "ele": "300", "operator:type": null, "layer": null, "addr:full": null, "addr:city": null, "source": null, "name:cs": null, "name:sk": null, "osm_id": 308721563, "osm_type": "nodes" }, "geometry": { "type": "Point", "coordinates": [ 16.282329, 50.1175906 ] } },
{ "type": "Feature", "properties": { "name": "Obrataň-JHMD", "name:en": null, "railway": "station", "ele": null, "operator:type": null, "layer": null, "addr:full": null, "addr:city": null, "source": null, "name:cs": null, "name:sk": null, "osm_id": 4387222159, "osm_type": "nodes" }, "geometry": { "type": "Point", "coordinates": [ 14.9534057, 49.4285378 ] } },
{ "type": "Feature", "properties": { "name": "Dačice", "name:en": null, "railway": "station", "ele": "465", "operator:type": null, "layer": null, "addr:full": null, "addr:city": null, "source": "uhul:ortofoto", "name:cs": null, "name:sk": null, "osm_id": 288478274, "osm_type": "nodes" }, "geometry": { "type": "Point", "coordinates": [ 15.4392042, 49.0859835 ] } },
{ "type": "Feature", "properties": { "name": "Řetenice", "name:en": null, "railway": "station", "ele": null, "operator:type": null, "layer": null, "addr:full": null, "addr:city": null, "source": null, "name:cs": null, "name:sk": null, "osm_id": 246780422, "osm_type": "nodes" }, "geometry": { "type": "Point", "coordinates": [ 13.8008174, 50.6424914 ] } },
{ "type": "Feature", "properties": { "name": "Staré Město pod Sněžníkem", "name:en": null, "railway": "station", "ele": null, "operator:type": null, "layer": null, "addr:full": null, "addr:city": null, "source": null, "name:cs": null, "name:sk": null, "osm_id": 276063565, "osm_type": "nodes" }, "geometry": { "type": "Point", "coordinates": [ 16.9420639, 50.1622987 ] } },
{ "type": "Feature", "properties": { "name": "Tlumačov", "name:en": null, "railway": "station", "ele": null, "operator:type": null, "layer": null, "addr:full": null, "addr:city": null, "source": null, "name:cs": null, "name:sk": null, "osm_id": 3309263263, "osm_type": "nodes" }, "geometry": { "type": "Point", "coordinates": [ 17.5013205, 49.254045 ] } },
{ "type": "Feature", "properties": { "name": "Zborovice", "name:en": null, "railway": "station", "ele": null, "operator:type": null, "layer": null, "addr:full": null, "addr:city": null, "source": null, "name:cs": null, "name:sk": null, "osm_id": 3307230751, "osm_type": "nodes" }, "geometry": { "type": "Point", "coordinates": [ 17.2830982, 49.2535436 ] } },
{ "type": "Feature", "properties": { "name": "Světlá Hora", "name:en": null, "railway": "station", "ele": null, "operator:type": null, "layer": null, "addr:full": null, "addr:city": null, "source": null, "name:cs": null, "name:sk": null, "osm_id": 301544764, "osm_type": "nodes" }, "geometry": { "type": "Point", "coordinates": [ 17.3944643, 50.0430781 ] } },
{ "type": "Feature", "properties": { "name": "Senice na Hané", "name:en": null, "railway": "station", "ele": null, "operator:type": null, "layer": null, "addr:full": null, "addr:city": null, "source": null, "name:cs": null, "name:sk": null, "osm_id": 5652249078, "osm_type": "nodes" }, "geometry": { "type": "Point", "coordinates": [ 17.100036, 49.6215344 ] } },
{ "type": "Feature", "properties": { "name": "Bzenec", "name:en": null, "railway": "station", "ele": null, "operator:type": null, "layer": null, "addr:full": null, "addr:city": null, "source": null, "name:cs": null, "name:sk": null, "osm_id": 5287631812, "osm_type": "nodes" }, "geometry": { "type": "Point", "coordinates": [ 17.2629513, 48.9691438 ] } },
{ "type": "Feature", "properties": { "name": "Karolinka", "name:en": null, "railway": "station", "ele": null, "operator:type": null, "layer": null, "addr:full": null, "addr:city": null, "source": null, "name:cs": null, "name:sk": null, "osm_id": 305044814, "osm_type": "nodes" }, "geometry": { "type": "Point", "coordinates": [ 18.2452383, 49.3502878 ] } },
{ "type": "Feature", "properties": { "name": "Hovězí", "name:en": null, "railway": "station", "ele": null, "operator:type": null, "layer": null, "addr:full": null, "addr:city": null, "source": null, "name:cs": null, "name:sk": null, "osm_id": 3477084685, "osm_type": "nodes" }, "geometry": { "type": "Point", "coordinates": [ 18.0599392, 49.3048625 ] } },
{ "type": "Feature", "properties": { "name": "Zdounky", "name:en": null, "railway": "station", "ele": null, "operator:type": null, "layer": null, "addr:full": null, "addr:city": null, "source": null, "name:cs": null, "name:sk": null, "osm_id": 3307230754, "osm_type": "nodes" }, "geometry": { "type": "Point", "coordinates": [ 17.3152949, 49.2287249 ] } },
{ "type": "Feature", "properties": { "name": "Mladeč", "name:en": null, "railway": "station", "ele": null, "operator:type": null, "layer": null, "addr:full": null, "addr:city": null, "source": null, "name:cs": null, "name:sk": null, "osm_id": 57240278, "osm_type": "nodes" }, "geometry": { "type": "Point", "coordinates": [ 17.0035722, 49.7042137 ] } },
{ "type": "Feature", "properties": { "name": "Krahulov", "name:en": null, "railway": "station", "ele": null, "operator:type": null, "layer": null, "addr:full": null, "addr:city": null, "source": null, "name:cs": null, "name:sk": null, "osm_id": 32548994, "osm_type": "nodes" }, "geometry": { "type": "Point", "coordinates": [ 15.804457, 49.2152628 ] } },
{ "type": "Feature", "properties": { "name": "Velké Meziříčí", "name:en": null, "railway": "station", "ele": "440", "operator:type": null, "layer": null, "addr:full": null, "addr:city": null, "source": null, "name:cs": null, "name:sk": null, "osm_id": 248776785, "osm_type": "nodes" }, "geometry": { "type": "Point", "coordinates": [ 16.0218745, 49.3457648 ] } },
{ "type": "Feature", "properties": { "name": "Dzbel", "name:en": null, "railway": "station", "ele": null, "operator:type": null, "layer": null, "addr:full": null, "addr:city": null, "source": null, "name:cs": null, "name:sk": null, "osm_id": 303412333, "osm_type": "nodes" }, "geometry": { "type": "Point", "coordinates": [ 16.8481434, 49.6102765 ] } },
{ "type": "Feature", "properties": { "name": "Tršnice", "name:en": null, "railway": "station", "ele": null, "operator:type": null, "layer": null, "addr:full": null, "addr:city": null, "source": null, "name:cs": "Tršnice", "name:sk": null, "osm_id": 2430983780, "osm_type": "nodes" }, "geometry": { "type": "Point", "coordinates": [ 12.3995173, 50.1138829 ] } },
{ "type": "Feature", "properties": { "name": "Újezdec u Luhačovic", "name:en": null, "railway": "station", "ele": null, "operator:type": null, "layer": null, "addr:full": null, "addr:city": null, "source": null, "name:cs": null, "name:sk": null, "osm_id": 282153806, "osm_type": "nodes" }, "geometry": { "type": "Point", "coordinates": [ 17.6851927, 49.0328353 ] } },
{ "type": "Feature", "properties": { "name": "Teplice v Čechách", "name:en": null, "railway": "station", "ele": null, "operator:type": null, "layer": null, "addr:full": null, "addr:city": null, "source": null, "name:cs": null, "name:sk": null, "osm_id": 5646270947, "osm_type": "nodes" }, "geometry": { "type": "Point", "coordinates": [ 13.8292671, 50.646567 ] } },
{ "type": "Feature", "properties": { "name": "Choceň", "name:en": null, "railway": "station", "ele": "292", "operator:type": null, "layer": null, "addr:full": null, "addr:city": null, "source": null, "name:cs": null, "name:sk": null, "osm_id": 24952579, "osm_type": "nodes" }, "geometry": { "type": "Point", "coordinates": [ 16.2232836, 49.9937377 ] } },
{ "type": "Feature", "properties": { "name": "Dlouhá Třebová", "name:en": null, "railway": "station", "ele": null, "operator:type": null, "layer": null, "addr:full": null, "addr:city": null, "source": null, "name:cs": null, "name:sk": null, "osm_id": 24692504, "osm_type": "nodes" }, "geometry": { "type": "Point", "coordinates": [ 16.4227017, 49.9354692 ] } },
{ "type": "Feature", "properties": { "name": "Štěpánov", "name:en": null, "railway": "station", "ele": "225", "operator:type": null, "layer": null, "addr:full": null, "addr:city": null, "source": null, "name:cs": null, "name:sk": null, "osm_id": 273485353, "osm_type": "nodes" }, "geometry": { "type": "Point", "coordinates": [ 17.2211978, 49.6710224 ] } },
{ "type": "Feature", "properties": { "name": "Česká Třebová", "name:en": null, "railway": "station", "ele": "385", "operator:type": null, "layer": null, "addr:full": null, "addr:city": null, "source": null, "name:cs": null, "name:sk": null, "osm_id": 3129289404, "osm_type": "nodes" }, "geometry": { "type": "Point", "coordinates": [ 16.4466776, 49.8970763 ] } },
{ "type": "Feature", "properties": { "name": "Počátky-Žirovnice", "name:en": null, "railway": "station", "ele": null, "operator:type": null, "layer": null, "addr:full": null, "addr:city": null, "source": null, "name:cs": null, "name:sk": null, "osm_id": 637691353, "osm_type": "nodes" }, "geometry": { "type": "Point", "coordinates": [ 15.2124826, 49.2370219 ] } },
{ "type": "Feature", "properties": { "name": "Lanšperk", "name:en": null, "railway": "station", "ele": null, "operator:type": null, "layer": null, "addr:full": null, "addr:city": null, "source": null, "name:cs": null, "name:sk": null, "osm_id": 24681433, "osm_type": "nodes" }, "geometry": { "type": "Point", "coordinates": [ 16.447299, 49.9927009 ] } },
{ "type": "Feature", "properties": { "name": "Jablonné nad Orlicí", "name:en": null, "railway": "station", "ele": "420", "operator:type": null, "layer": null, "addr:full": null, "addr:city": null, "source": null, "name:cs": null, "name:sk": null, "osm_id": 249419471, "osm_type": "nodes" }, "geometry": { "type": "Point", "coordinates": [ 16.5945804, 50.0263484 ] } },
{ "type": "Feature", "properties": { "name": "Grygov", "name:en": null, "railway": "station", "ele": null, "operator:type": null, "layer": null, "addr:full": null, "addr:city": null, "source": null, "name:cs": null, "name:sk": null, "osm_id": 659935690, "osm_type": "nodes" }, "geometry": { "type": "Point", "coordinates": [ 17.3054291, 49.5336822 ] } },
{ "type": "Feature", "properties": { "name": "Kyjice", "name:en": null, "railway": "station", "ele": null, "operator:type": null, "layer": null, "addr:full": null, "addr:city": null, "source": null, "name:cs": null, "name:sk": null, "osm_id": 5662726286, "osm_type": "nodes" }, "geometry": { "type": "Point", "coordinates": [ 13.4857868, 50.5102544 ] } },
{ "type": "Feature", "properties": { "name": "Vracov hlavní nádraží", "name:en": null, "railway": "station", "ele": null, "operator:type": null, "layer": null, "addr:full": null, "addr:city": null, "source": null, "name:cs": null, "name:sk": null, "osm_id": 9074146255, "osm_type": "nodes" }, "geometry": { "type": "Point", "coordinates": [ 17.2158997, 48.9710904 ] } },
{ "type": "Feature", "properties": { "name": "Trhanov", "name:en": null, "railway": "station", "ele": null, "operator:type": null, "layer": null, "addr:full": null, "addr:city": null, "source": null, "name:cs": "Trhanov", "name:sk": null, "osm_id": 5662745405, "osm_type": "nodes" }, "geometry": { "type": "Point", "coordinates": [ 12.839526, 49.4201748 ] } },
{ "type": "Feature", "properties": { "name": "Česká Kubice", "name:en": null, "railway": "station", "ele": null, "operator:type": null, "layer": null, "addr:full": null, "addr:city": null, "source": null, "name:cs": "Česká Kubice", "name:sk": null, "osm_id": 213837852, "osm_type": "nodes" }, "geometry": { "type": "Point", "coordinates": [ 12.8651894, 49.3745564 ] } },
{ "type": "Feature", "properties": { "name": "Kolešovice", "name:en": null, "railway": "station", "ele": null, "operator:type": null, "layer": null, "addr:full": null, "addr:city": null, "source": null, "name:cs": null, "name:sk": null, "osm_id": 875824054, "osm_type": "nodes" }, "geometry": { "type": "Point", "coordinates": [ 13.6033456, 50.1356621 ] } },
{ "type": "Feature", "properties": { "name": "Janovice nad Úhlavou", "name:en": null, "railway": "station", "ele": null, "operator:type": null, "layer": null, "addr:full": null, "addr:city": null, "source": null, "name:cs": "Janovice nad Úhlavou", "name:sk": null, "osm_id": 300524849, "osm_type": "nodes" }, "geometry": { "type": "Point", "coordinates": [ 13.203653, 49.352428 ] } },
{ "type": "Feature", "properties": { "name": "Krupá", "name:en": null, "railway": "station", "ele": null, "operator:type": null, "layer": null, "addr:full": null, "addr:city": null, "source": null, "name:cs": null, "name:sk": null, "osm_id": 267247424, "osm_type": "nodes" }, "geometry": { "type": "Point", "coordinates": [ 13.722933, 50.1697107 ] } },
{ "type": "Feature", "properties": { "name": "Lipová u Chebu", "name:en": null, "railway": "station", "ele": null, "operator:type": null, "layer": null, "addr:full": null, "addr:city": null, "source": null, "name:cs": "Lipová u Chebu", "name:sk": null, "osm_id": 264804906, "osm_type": "nodes" }, "geometry": { "type": "Point", "coordinates": [ 12.4578235, 50.0305129 ] } },
{ "type": "Feature", "properties": { "name": "Studenec", "name:en": null, "railway": "station", "ele": "435", "operator:type": null, "layer": null, "addr:full": null, "addr:city": null, "source": null, "name:cs": null, "name:sk": null, "osm_id": 32548214, "osm_type": "nodes" }, "geometry": { "type": "Point", "coordinates": [ 16.069036, 49.22246 ] } },
{ "type": "Feature", "properties": { "name": "Blížejov", "name:en": null, "railway": "station", "ele": null, "operator:type": null, "layer": null, "addr:full": null, "addr:city": null, "source": null, "name:cs": null, "name:sk": null, "osm_id": 9138535576, "osm_type": "nodes" }, "geometry": { "type": "Point", "coordinates": [ 12.9949435, 49.5015448 ] } },
{ "type": "Feature", "properties": { "name": "Dobronín", "name:en": null, "railway": "station", "ele": "490", "operator:type": null, "layer": null, "addr:full": null, "addr:city": null, "source": null, "name:cs": null, "name:sk": null, "osm_id": 534159742, "osm_type": "nodes" }, "geometry": { "type": "Point", "coordinates": [ 15.6417252, 49.4782638 ] } },
{ "type": "Feature", "properties": { "name": "Poutnov", "name:en": null, "railway": "station", "ele": null, "operator:type": null, "layer": null, "addr:full": null, "addr:city": null, "source": null, "name:cs": null, "name:sk": null, "osm_id": 34239669, "osm_type": "nodes" }, "geometry": { "type": "Point", "coordinates": [ 12.8220058, 50.0182497 ] } },
{ "type": "Feature", "properties": { "name": "Stráž u Tachova", "name:en": null, "railway": "station", "ele": null, "operator:type": null, "layer": null, "addr:full": null, "addr:city": null, "source": null, "name:cs": null, "name:sk": null, "osm_id": 948347369, "osm_type": "nodes" }, "geometry": { "type": "Point", "coordinates": [ 12.7728251, 49.6651064 ] } },
{ "type": "Feature", "properties": { "name": "Kozolupy", "name:en": null, "railway": "station", "ele": null, "operator:type": null, "layer": null, "addr:full": null, "addr:city": null, "source": null, "name:cs": null, "name:sk": null, "osm_id": 24683247, "osm_type": "nodes" }, "geometry": { "type": "Point", "coordinates": [ 13.2451231, 49.7623374 ] } },
{ "type": "Feature", "properties": { "name": "Stříbro", "name:en": null, "railway": "station", "ele": null, "operator:type": null, "layer": null, "addr:full": null, "addr:city": null, "source": null, "name:cs": null, "name:sk": null, "osm_id": 6373607248, "osm_type": "nodes" }, "geometry": { "type": "Point", "coordinates": [ 13.0008986, 49.7414252 ] } },
{ "type": "Feature", "properties": { "name": "Bezdružice", "name:en": null, "railway": "station", "ele": null, "operator:type": null, "layer": null, "addr:full": null, "addr:city": null, "source": null, "name:cs": null, "name:sk": null, "osm_id": 445512646, "osm_type": "nodes" }, "geometry": { "type": "Point", "coordinates": [ 12.9695552, 49.9031417 ] } },
{ "type": "Feature", "properties": { "name": "Trpísty", "name:en": null, "railway": "station", "ele": null, "operator:type": null, "layer": null, "addr:full": null, "addr:city": null, "source": null, "name:cs": null, "name:sk": null, "osm_id": 35363110, "osm_type": "nodes" }, "geometry": { "type": "Point", "coordinates": [ 13.0468659, 49.8154753 ] } },
{ "type": "Feature", "properties": { "name": "Pňovany", "name:en": null, "railway": "station", "ele": null, "operator:type": null, "layer": null, "addr:full": null, "addr:city": null, "source": null, "name:cs": null, "name:sk": null, "osm_id": 2466728502, "osm_type": "nodes" }, "geometry": { "type": "Point", "coordinates": [ 13.0902909, 49.7885945 ] } },
{ "type": "Feature", "properties": { "name": "Rotava", "name:en": null, "railway": "station", "ele": null, "operator:type": null, "layer": null, "addr:full": null, "addr:city": null, "source": null, "name:cs": "Rotava", "name:sk": null, "osm_id": 10294164369, "osm_type": "nodes" }, "geometry": { "type": "Point", "coordinates": [ 12.5354808, 50.2870468 ] } },
{ "type": "Feature", "properties": { "name": "Vlkovice", "name:en": null, "railway": "station", "ele": null, "operator:type": null, "layer": null, "addr:full": null, "addr:city": null, "source": null, "name:cs": null, "name:sk": null, "osm_id": 882856707, "osm_type": "nodes" }, "geometry": { "type": "Point", "coordinates": [ 12.7426745, 49.9466871 ] } },
{ "type": "Feature", "properties": { "name": "Domažlice", "name:en": null, "railway": "station", "ele": null, "operator:type": null, "layer": null, "addr:full": null, "addr:city": null, "source": null, "name:cs": null, "name:sk": null, "osm_id": 248543836, "osm_type": "nodes" }, "geometry": { "type": "Point", "coordinates": [ 12.9430344, 49.4351051 ] } },
{ "type": "Feature", "properties": { "name": "Otvovice", "name:en": null, "railway": "station", "ele": null, "operator:type": null, "layer": null, "addr:full": null, "addr:city": null, "source": null, "name:cs": null, "name:sk": null, "osm_id": 60301331, "osm_type": "nodes" }, "geometry": { "type": "Point", "coordinates": [ 14.2702581, 50.2102772 ] } },
{ "type": "Feature", "properties": { "name": "Ošelín", "name:en": null, "railway": "station", "ele": null, "operator:type": null, "layer": null, "addr:full": null, "addr:city": null, "source": null, "name:cs": null, "name:sk": null, "osm_id": 24599576, "osm_type": "nodes" }, "geometry": { "type": "Point", "coordinates": [ 12.8460635, 49.7860888 ] } },
{ "type": "Feature", "properties": { "name": "Chodová Planá", "name:en": null, "railway": "station", "ele": null, "operator:type": null, "layer": null, "addr:full": null, "addr:city": null, "source": null, "name:cs": null, "name:sk": null, "osm_id": 24694988, "osm_type": "nodes" }, "geometry": { "type": "Point", "coordinates": [ 12.7245101, 49.903009 ] } },
{ "type": "Feature", "properties": { "name": "Milíkov", "name:en": null, "railway": "station", "ele": null, "operator:type": null, "layer": null, "addr:full": null, "addr:city": null, "source": null, "name:cs": null, "name:sk": null, "osm_id": 1750075917, "osm_type": "nodes" }, "geometry": { "type": "Point", "coordinates": [ 12.9383956, 49.7441732 ] } },
{ "type": "Feature", "properties": { "name": "Valašské Klobouky", "name:en": null, "railway": "station", "ele": "420", "operator:type": null, "layer": null, "addr:full": null, "addr:city": null, "source": null, "name:cs": null, "name:sk": null, "osm_id": 5652315512, "osm_type": "nodes" }, "geometry": { "type": "Point", "coordinates": [ 18.0226428, 49.1422332 ] } },
{ "type": "Feature", "properties": { "name": "Valašské Meziříčí", "name:en": null, "railway": "station", "ele": "295", "operator:type": null, "layer": null, "addr:full": null, "addr:city": null, "source": null, "name:cs": "Valašské Meziříčí", "name:sk": null, "osm_id": 3266743007, "osm_type": "nodes" }, "geometry": { "type": "Point", "coordinates": [ 17.9607144, 49.4745164 ] } },
{ "type": "Feature", "properties": { "name": "Kroměříž", "name:en": null, "railway": "station", "ele": null, "operator:type": null, "layer": null, "addr:full": null, "addr:city": null, "source": null, "name:cs": null, "name:sk": null, "osm_id": 3307230745, "osm_type": "nodes" }, "geometry": { "type": "Point", "coordinates": [ 17.4028265, 49.3023297 ] } },
{ "type": "Feature", "properties": { "name": "Kojetín", "name:en": null, "railway": "station", "ele": null, "operator:type": null, "layer": null, "addr:full": null, "addr:city": null, "source": null, "name:cs": null, "name:sk": null, "osm_id": 3303843468, "osm_type": "nodes" }, "geometry": { "type": "Point", "coordinates": [ 17.3047327, 49.3454125 ] } },
{ "type": "Feature", "properties": { "name": "Vyškov na Moravě", "name:en": null, "railway": "station", "ele": "260", "operator:type": null, "layer": null, "addr:full": null, "addr:city": null, "source": null, "name:cs": null, "name:sk": null, "osm_id": 3305512304, "osm_type": "nodes" }, "geometry": { "type": "Point", "coordinates": [ 16.9915216, 49.2785138 ] } },
{ "type": "Feature", "properties": { "name": "Nezamyslice", "name:en": null, "railway": "station", "ele": null, "operator:type": null, "layer": null, "addr:full": null, "addr:city": null, "source": null, "name:cs": null, "name:sk": null, "osm_id": 3303843470, "osm_type": "nodes" }, "geometry": { "type": "Point", "coordinates": [ 17.1614729, 49.3357228 ] } },
{ "type": "Feature", "properties": { "name": "Moravský Písek", "name:en": null, "railway": "station", "ele": "180", "operator:type": null, "layer": null, "addr:full": null, "addr:city": null, "source": null, "name:cs": null, "name:sk": null, "osm_id": 5280542459, "osm_type": "nodes" }, "geometry": { "type": "Point", "coordinates": [ 17.3147015, 48.9771511 ] } },
{ "type": "Feature", "properties": { "name": "Podivín", "name:en": null, "railway": "station", "ele": null, "operator:type": null, "layer": null, "addr:full": null, "addr:city": null, "source": null, "name:cs": null, "name:sk": null, "osm_id": 5278491684, "osm_type": "nodes" }, "geometry": { "type": "Point", "coordinates": [ 16.8540642, 48.8374706 ] } },
{ "type": "Feature", "properties": { "name": "Předměřice nad Labem", "name:en": null, "railway": "station", "ele": null, "operator:type": null, "layer": null, "addr:full": null, "addr:city": null, "source": null, "name:cs": null, "name:sk": null, "osm_id": 10259532731, "osm_type": "nodes" }, "geometry": { "type": "Point", "coordinates": [ 15.8177258, 50.2526544 ] } },
{ "type": "Feature", "properties": { "name": "Košťálov", "name:en": null, "railway": "station", "ele": null, "operator:type": null, "layer": null, "addr:full": null, "addr:city": null, "source": null, "name:cs": null, "name:sk": null, "osm_id": 250855027, "osm_type": "nodes" }, "geometry": { "type": "Point", "coordinates": [ 15.4036647, 50.5688205 ] } },
{ "type": "Feature", "properties": { "name": "Horní Police", "name:en": null, "railway": "station", "ele": null, "operator:type": null, "layer": null, "addr:full": null, "addr:city": null, "source": null, "name:cs": null, "name:sk": null, "osm_id": 264509080, "osm_type": "nodes" }, "geometry": { "type": "Point", "coordinates": [ 14.4000663, 50.7061279 ] } },
{ "type": "Feature", "properties": { "name": "Hrádek nad Nisou", "name:en": null, "railway": "station", "ele": null, "operator:type": null, "layer": null, "addr:full": null, "addr:city": null, "source": null, "name:cs": null, "name:sk": null, "osm_id": 5646239169, "osm_type": "nodes" }, "geometry": { "type": "Point", "coordinates": [ 14.8465159, 50.8556642 ] } },
{ "type": "Feature", "properties": { "name": "Lípa", "name:en": null, "railway": "station", "ele": null, "operator:type": null, "layer": null, "addr:full": null, "addr:city": null, "source": null, "name:cs": null, "name:sk": null, "osm_id": 272425784, "osm_type": "nodes" }, "geometry": { "type": "Point", "coordinates": [ 15.5384433, 49.5564321 ] } },
{ "type": "Feature", "properties": { "name": "Jeřmanice", "name:en": null, "railway": "station", "ele": null, "operator:type": null, "layer": null, "addr:full": null, "addr:city": null, "source": null, "name:cs": null, "name:sk": null, "osm_id": 958755218, "osm_type": "nodes" }, "geometry": { "type": "Point", "coordinates": [ 15.0863996, 50.7074139 ] } },
{ "type": "Feature", "properties": { "name": "Jemnice", "name:en": null, "railway": "station", "ele": null, "operator:type": null, "layer": null, "addr:full": null, "addr:city": null, "source": "uhul:ortofoto", "name:cs": null, "name:sk": null, "osm_id": 245957955, "osm_type": "nodes" }, "geometry": { "type": "Point", "coordinates": [ 15.581591, 49.0158183 ] } },
{ "type": "Feature", "properties": { "name": "Znojmo", "name:en": null, "railway": "station", "ele": "265", "operator:type": null, "layer": null, "addr:full": null, "addr:city": null, "source": null, "name:cs": null, "name:sk": null, "osm_id": 3405914909, "osm_type": "nodes" }, "geometry": { "type": "Point", "coordinates": [ 16.0590852, 48.8526174 ] } },
{ "type": "Feature", "properties": { "name": "Velké Opatovice", "name:en": null, "railway": "station", "ele": "375", "operator:type": null, "layer": null, "addr:full": null, "addr:city": null, "source": null, "name:cs": null, "name:sk": null, "osm_id": 5282656244, "osm_type": "nodes" }, "geometry": { "type": "Point", "coordinates": [ 16.6907376, 49.6114077 ] } },
{ "type": "Feature", "properties": { "name": "Rájec-Jestřebí", "name:en": null, "railway": "station", "ele": null, "operator:type": null, "layer": null, "addr:full": null, "addr:city": null, "source": null, "name:cs": null, "name:sk": null, "osm_id": 5316426748, "osm_type": "nodes" }, "geometry": { "type": "Point", "coordinates": [ 16.6277047, 49.4080888 ] } },
{ "type": "Feature", "properties": { "name": "Šatov", "name:en": null, "railway": "station", "ele": "250", "operator:type": null, "layer": null, "addr:full": null, "addr:city": null, "source": null, "name:cs": null, "name:sk": null, "osm_id": 3405908700, "osm_type": "nodes" }, "geometry": { "type": "Point", "coordinates": [ 16.0260818, 48.7808577 ] } },
{ "type": "Feature", "properties": { "name": "Gmünd NÖ (NÖVOG)", "name:en": null, "railway": "station", "ele": null, "operator:type": null, "layer": null, "addr:full": null, "addr:city": null, "source": null, "name:cs": null, "name:sk": null, "osm_id": 776065142, "osm_type": "nodes" }, "geometry": { "type": "Point", "coordinates": [ 14.9839592, 48.7649213 ] } },
{ "type": "Feature", "properties": { "name": "Chotětov", "name:en": null, "railway": "station", "ele": "262", "operator:type": null, "layer": null, "addr:full": null, "addr:city": null, "source": null, "name:cs": null, "name:sk": null, "osm_id": 3275316673, "osm_type": "nodes" }, "geometry": { "type": "Point", "coordinates": [ 14.8104879, 50.339786 ] } },
{ "type": "Feature", "properties": { "name": "Kunžak-Lomy", "name:en": null, "railway": "station", "ele": null, "operator:type": null, "layer": null, "addr:full": null, "addr:city": null, "source": null, "name:cs": null, "name:sk": null, "osm_id": 277292020, "osm_type": "nodes" }, "geometry": { "type": "Point", "coordinates": [ 15.1628042, 49.1120656 ] } },
{ "type": "Feature", "properties": { "name": "Teplá", "name:en": null, "railway": "station", "ele": null, "operator:type": null, "layer": null, "addr:full": null, "addr:city": null, "source": null, "name:cs": null, "name:sk": null, "osm_id": 987438134, "osm_type": "nodes" }, "geometry": { "type": "Point", "coordinates": [ 12.8599577, 49.9756381 ] } },
{ "type": "Feature", "properties": { "name": "Lovětín", "name:en": null, "railway": "station", "ele": null, "operator:type": null, "layer": null, "addr:full": null, "addr:city": null, "source": null, "name:cs": null, "name:sk": null, "osm_id": 5685683778, "osm_type": "nodes" }, "geometry": { "type": "Point", "coordinates": [ 15.050697, 49.2012112 ] } },
{ "type": "Feature", "properties": { "name": "Lenora", "name:en": null, "railway": "station", "ele": null, "operator:type": null, "layer": null, "addr:full": null, "addr:city": null, "source": null, "name:cs": null, "name:sk": null, "osm_id": 5685644784, "osm_type": "nodes" }, "geometry": { "type": "Point", "coordinates": [ 13.7969138, 48.9283914 ] } },
{ "type": "Feature", "properties": { "name": "Brno hlavní nádraží", "name:en": null, "railway": "station", "ele": "205", "operator:type": null, "layer": null, "addr:full": null, "addr:city": "Brno", "source": null, "name:cs": null, "name:sk": null, "osm_id": 3325029085, "osm_type": "nodes" }, "geometry": { "type": "Point", "coordinates": [ 16.6131116, 49.1911221 ] } },
{ "type": "Feature", "properties": { "name": "Dolní Lipka", "name:en": null, "railway": "station", "ele": null, "operator:type": null, "layer": null, "addr:full": null, "addr:city": null, "source": null, "name:cs": null, "name:sk": null, "osm_id": 249426852, "osm_type": "nodes" }, "geometry": { "type": "Point", "coordinates": [ 16.720932, 50.0893984 ] } },
{ "type": "Feature", "properties": { "name": "Cheb", "name:en": null, "railway": "station", "ele": "463", "operator:type": null, "layer": null, "addr:full": null, "addr:city": null, "source": null, "name:cs": null, "name:sk": null, "osm_id": 8900892641, "osm_type": "nodes" }, "geometry": { "type": "Point", "coordinates": [ 12.38057, 50.0735304 ] } },
{ "type": "Feature", "properties": { "name": "Telč", "name:en": null, "railway": "station", "ele": "520", "operator:type": null, "layer": null, "addr:full": null, "addr:city": null, "source": null, "name:cs": null, "name:sk": null, "osm_id": 5018113451, "osm_type": "nodes" }, "geometry": { "type": "Point", "coordinates": [ 15.4645899, 49.1825563 ] } },
{ "type": "Feature", "properties": { "name": "Radnice", "name:en": null, "railway": "station", "ele": null, "operator:type": null, "layer": null, "addr:full": null, "addr:city": null, "source": null, "name:cs": null, "name:sk": null, "osm_id": 3324860308, "osm_type": "nodes" }, "geometry": { "type": "Point", "coordinates": [ 13.5965653, 49.8581298 ] } },
{ "type": "Feature", "properties": { "name": "Stupno", "name:en": null, "railway": "station", "ele": null, "operator:type": null, "layer": null, "addr:full": null, "addr:city": null, "source": null, "name:cs": null, "name:sk": null, "osm_id": 5674318034, "osm_type": "nodes" }, "geometry": { "type": "Point", "coordinates": [ 13.5768401, 49.8263333 ] } },
{ "type": "Feature", "properties": { "name": "Chrást u Plzně", "name:en": null, "railway": "station", "ele": null, "operator:type": null, "layer": null, "addr:full": null, "addr:city": null, "source": null, "name:cs": null, "name:sk": null, "osm_id": 428878707, "osm_type": "nodes" }, "geometry": { "type": "Point", "coordinates": [ 13.4974837, 49.7855035 ] } },
{ "type": "Feature", "properties": { "name": "Plzeň hlavní nádraží", "name:en": null, "railway": "station", "ele": null, "operator:type": null, "layer": null, "addr:full": null, "addr:city": null, "source": null, "name:cs": null, "name:sk": null, "osm_id": 30077682, "osm_type": "nodes" }, "geometry": { "type": "Point", "coordinates": [ 13.3882551, 49.743329 ] } },
{ "type": "Feature", "properties": { "name": "Svojetín", "name:en": null, "railway": "station", "ele": null, "operator:type": null, "layer": null, "addr:full": null, "addr:city": null, "source": null, "name:cs": null, "name:sk": null, "osm_id": 981387033, "osm_type": "nodes" }, "geometry": { "type": "Point", "coordinates": [ 13.6323031, 50.1981547 ] } },
{ "type": "Feature", "properties": { "name": "Florenc", "name:en": null, "railway": "station", "ele": null, "operator:type": null, "layer": null, "addr:full": null, "addr:city": null, "source": null, "name:cs": "Florenc", "name:sk": null, "osm_id": 5460580012, "osm_type": "nodes" }, "geometry": { "type": "Point", "coordinates": [ 14.4392619, 50.0902191 ] } },
{ "type": "Feature", "properties": { "name": "Ejpovice", "name:en": null, "railway": "station", "ele": null, "operator:type": null, "layer": null, "addr:full": null, "addr:city": null, "source": "survey", "name:cs": "Ejpovice", "name:sk": null, "osm_id": 2467198945, "osm_type": "nodes" }, "geometry": { "type": "Point", "coordinates": [ 13.5112188, 49.7517302 ] } },
{ "type": "Feature", "properties": { "name": "Kutná Hora město", "name:en": null, "railway": "station", "ele": null, "operator:type": null, "layer": null, "addr:full": null, "addr:city": null, "source": null, "name:cs": null, "name:sk": null, "osm_id": 264948846, "osm_type": "nodes" }, "geometry": { "type": "Point", "coordinates": [ 15.2773521, 49.9498597 ] } },
{ "type": "Feature", "properties": { "name": "Rokycany", "name:en": null, "railway": "station", "ele": null, "operator:type": null, "layer": null, "addr:full": null, "addr:city": null, "source": null, "name:cs": "Rokycany", "name:sk": null, "osm_id": 24593225, "osm_type": "nodes" }, "geometry": { "type": "Point", "coordinates": [ 13.5920802, 49.7404832 ] } },
{ "type": "Feature", "properties": { "name": "Mirošov", "name:en": null, "railway": "station", "ele": null, "operator:type": null, "layer": null, "addr:full": null, "addr:city": null, "source": null, "name:cs": null, "name:sk": null, "osm_id": 877284917, "osm_type": "nodes" }, "geometry": { "type": "Point", "coordinates": [ 13.6664705, 49.7002156 ] } },
{ "type": "Feature", "properties": { "name": "Příkosice", "name:en": null, "railway": "station", "ele": null, "operator:type": null, "layer": null, "addr:full": null, "addr:city": null, "source": null, "name:cs": null, "name:sk": null, "osm_id": 5602253913, "osm_type": "nodes" }, "geometry": { "type": "Point", "coordinates": [ 13.6514361, 49.6630375 ] } },
{ "type": "Feature", "properties": { "name": "Postřelmov", "name:en": null, "railway": "station", "ele": null, "operator:type": null, "layer": null, "addr:full": null, "addr:city": "Postřelmov", "source": null, "name:cs": null, "name:sk": null, "osm_id": 2929316772, "osm_type": "nodes" }, "geometry": { "type": "Point", "coordinates": [ 16.9230287, 49.9101406 ] } },
{ "type": "Feature", "properties": { "name": "Příbram", "name:en": null, "railway": "station", "ele": null, "operator:type": null, "layer": null, "addr:full": null, "addr:city": null, "source": null, "name:cs": null, "name:sk": null, "osm_id": 12106265627, "osm_type": "nodes" }, "geometry": { "type": "Point", "coordinates": [ 14.0033387, 49.6888174 ] } },
{ "type": "Feature", "properties": { "name": "Chrastava", "name:en": null, "railway": "station", "ele": null, "operator:type": null, "layer": null, "addr:full": null, "addr:city": null, "source": null, "name:cs": null, "name:sk": null, "osm_id": 12106328713, "osm_type": "nodes" }, "geometry": { "type": "Point", "coordinates": [ 14.9523597, 50.8129797 ] } },
{ "type": "Feature", "properties": { "name": "Hůrky", "name:en": null, "railway": "station", "ele": null, "operator:type": null, "layer": null, "addr:full": null, "addr:city": null, "source": null, "name:cs": null, "name:sk": null, "osm_id": 277289784, "osm_type": "nodes" }, "geometry": { "type": "Point", "coordinates": [ 15.1583741, 49.0453295 ] } },
{ "type": "Feature", "properties": { "name": "Dobříš", "name:en": null, "railway": "station", "ele": null, "operator:type": null, "layer": null, "addr:full": null, "addr:city": null, "source": null, "name:cs": null, "name:sk": null, "osm_id": 9980751150, "osm_type": "nodes" }, "geometry": { "type": "Point", "coordinates": [ 14.1832739, 49.7899133 ] } },
{ "type": "Feature", "properties": { "name": "Velká Kraš", "name:en": null, "railway": "station", "ele": null, "operator:type": null, "layer": null, "addr:full": null, "addr:city": null, "source": null, "name:cs": null, "name:sk": null, "osm_id": 278989187, "osm_type": "nodes" }, "geometry": { "type": "Point", "coordinates": [ 17.1268963, 50.3623589 ] } },
{ "type": "Feature", "properties": { "name": "Rožnov pod Radhoštěm", "name:en": null, "railway": "station", "ele": null, "operator:type": null, "layer": null, "addr:full": null, "addr:city": null, "source": null, "name:cs": null, "name:sk": null, "osm_id": 3294554828, "osm_type": "nodes" }, "geometry": { "type": "Point", "coordinates": [ 18.1344115, 49.460505 ] } },
{ "type": "Feature", "properties": { "name": "Hradec nad Moravicí", "name:en": null, "railway": "station", "ele": null, "operator:type": null, "layer": null, "addr:full": null, "addr:city": null, "source": null, "name:cs": null, "name:sk": null, "osm_id": 10213946052, "osm_type": "nodes" }, "geometry": { "type": "Point", "coordinates": [ 17.8759006, 49.8775935 ] } },
{ "type": "Feature", "properties": { "name": "Hradec nad Moravicí", "name:en": null, "railway": "station", "ele": null, "operator:type": null, "layer": null, "addr:full": null, "addr:city": null, "source": null, "name:cs": null, "name:sk": null, "osm_id": 10213945900, "osm_type": "nodes" }, "geometry": { "type": "Point", "coordinates": [ 17.87604, 49.8775947 ] } },
{ "type": "Feature", "properties": { "name": "Kunovice", "name:en": null, "railway": "station", "ele": null, "operator:type": null, "layer": null, "addr:full": null, "addr:city": null, "source": null, "name:cs": null, "name:sk": null, "osm_id": 5650164539, "osm_type": "nodes" }, "geometry": { "type": "Point", "coordinates": [ 17.470064, 49.0519083 ] } },
{ "type": "Feature", "properties": { "name": "Hodonice", "name:en": null, "railway": "station", "ele": null, "operator:type": null, "layer": null, "addr:full": null, "addr:city": null, "source": null, "name:cs": null, "name:sk": null, "osm_id": 5203749271, "osm_type": "nodes" }, "geometry": { "type": "Point", "coordinates": [ 16.1644244, 48.8414732 ] } },
{ "type": "Feature", "properties": { "name": "Zlín střed", "name:en": null, "railway": "station", "ele": "215", "operator:type": null, "layer": null, "addr:full": null, "addr:city": null, "source": null, "name:cs": null, "name:sk": null, "osm_id": 3311646184, "osm_type": "nodes" }, "geometry": { "type": "Point", "coordinates": [ 17.658406, 49.2264625 ] } },
{ "type": "Feature", "properties": { "name": "Bystřice pod Hostýnem", "name:en": null, "railway": "station", "ele": null, "operator:type": null, "layer": null, "addr:full": null, "addr:city": null, "source": null, "name:cs": null, "name:sk": null, "osm_id": 3313933862, "osm_type": "nodes" }, "geometry": { "type": "Point", "coordinates": [ 17.6655463, 49.3930558 ] } },
{ "type": "Feature", "properties": { "name": "Adamov", "name:en": null, "railway": "station", "ele": "245", "operator:type": null, "layer": null, "addr:full": null, "addr:city": null, "source": null, "name:cs": null, "name:sk": null, "osm_id": 4716850154, "osm_type": "nodes" }, "geometry": { "type": "Point", "coordinates": [ 16.6634542, 49.2953894 ] } },
{ "type": "Feature", "properties": { "name": "Bohdíkov", "name:en": null, "railway": "station", "ele": null, "operator:type": null, "layer": null, "addr:full": null, "addr:city": null, "source": null, "name:cs": null, "name:sk": null, "osm_id": 249487196, "osm_type": "nodes" }, "geometry": { "type": "Point", "coordinates": [ 16.9015748, 50.026652 ] } },
{ "type": "Feature", "properties": { "name": "Drahanovice", "name:en": null, "railway": "station", "ele": null, "operator:type": null, "layer": null, "addr:full": null, "addr:city": null, "source": null, "name:cs": null, "name:sk": null, "osm_id": 256206931, "osm_type": "nodes" }, "geometry": { "type": "Point", "coordinates": [ 17.0793863, 49.5831625 ] } },
{ "type": "Feature", "properties": { "name": "Malá Morávka", "name:en": null, "railway": "station", "ele": null, "operator:type": null, "layer": null, "addr:full": null, "addr:city": null, "source": null, "name:cs": null, "name:sk": null, "osm_id": 301551779, "osm_type": "nodes" }, "geometry": { "type": "Point", "coordinates": [ 17.3172798, 50.0100715 ] } },
{ "type": "Feature", "properties": { "name": "Široká Niva", "name:en": null, "railway": "station", "ele": null, "operator:type": null, "layer": null, "addr:full": null, "addr:city": null, "source": null, "name:cs": null, "name:sk": null, "osm_id": 301815100, "osm_type": "nodes" }, "geometry": { "type": "Point", "coordinates": [ 17.4734536, 50.0666027 ] } },
{ "type": "Feature", "properties": { "name": "Kunov", "name:en": null, "railway": "station", "ele": null, "operator:type": null, "layer": null, "addr:full": null, "addr:city": null, "source": null, "name:cs": null, "name:sk": null, "osm_id": 301812407, "osm_type": "nodes" }, "geometry": { "type": "Point", "coordinates": [ 17.5159887, 50.0373155 ] } },
{ "type": "Feature", "properties": { "name": "Zlaté Hory", "name:en": null, "railway": "station", "ele": null, "operator:type": null, "layer": null, "addr:full": null, "addr:city": null, "source": null, "name:cs": null, "name:sk": null, "osm_id": 5654510186, "osm_type": "nodes" }, "geometry": { "type": "Point", "coordinates": [ 17.3832261, 50.2593553 ] } },
{ "type": "Feature", "properties": { "name": "Jindřichov ve Slezsku", "name:en": null, "railway": "station", "ele": null, "operator:type": null, "layer": null, "addr:full": null, "addr:city": null, "source": null, "name:cs": null, "name:sk": null, "osm_id": 5654594746, "osm_type": "nodes" }, "geometry": { "type": "Point", "coordinates": [ 17.5385423, 50.2485783 ] } },
{ "type": "Feature", "properties": { "name": "Vrbno pod Pradědem", "name:en": null, "railway": "station", "ele": null, "operator:type": null, "layer": null, "addr:full": null, "addr:city": null, "source": null, "name:cs": null, "name:sk": null, "osm_id": 5661390370, "osm_type": "nodes" }, "geometry": { "type": "Point", "coordinates": [ 17.3878213, 50.1178709 ] } },
{ "type": "Feature", "properties": { "name": "Karlovice", "name:en": null, "railway": "station", "ele": null, "operator:type": null, "layer": null, "addr:full": null, "addr:city": null, "source": null, "name:cs": null, "name:sk": null, "osm_id": 5661390369, "osm_type": "nodes" }, "geometry": { "type": "Point", "coordinates": [ 17.439216, 50.1050024 ] } },
{ "type": "Feature", "properties": { "name": "Třemešná ve Slezsku", "name:en": null, "railway": "station", "ele": null, "operator:type": null, "layer": null, "addr:full": null, "addr:city": null, "source": null, "name:cs": null, "name:sk": null, "osm_id": 5654594747, "osm_type": "nodes" }, "geometry": { "type": "Point", "coordinates": [ 17.5737932, 50.1999094 ] } },
{ "type": "Feature", "properties": { "name": "Ledeč nad Sázavou", "name:en": null, "railway": "station", "ele": "365", "operator:type": null, "layer": null, "addr:full": null, "addr:city": null, "source": null, "name:cs": null, "name:sk": null, "osm_id": 306617334, "osm_type": "nodes" }, "geometry": { "type": "Point", "coordinates": [ 15.2700598, 49.6981538 ] } },
{ "type": "Feature", "properties": { "name": "Kouty nad Desnou", "name:en": null, "railway": "station", "ele": null, "operator:type": null, "layer": null, "addr:full": null, "addr:city": null, "source": null, "name:cs": null, "name:sk": null, "osm_id": 268944164, "osm_type": "nodes" }, "geometry": { "type": "Point", "coordinates": [ 17.1044696, 50.0988883 ] } },
{ "type": "Feature", "properties": { "name": "Čelechovice na Hané", "name:en": null, "railway": "station", "ele": null, "operator:type": null, "layer": null, "addr:full": null, "addr:city": null, "source": null, "name:cs": null, "name:sk": null, "osm_id": 91481553, "osm_type": "nodes" }, "geometry": { "type": "Point", "coordinates": [ 17.0967632, 49.51348 ] } },
{ "type": "Feature", "properties": { "name": "Olomouc-Řepčín", "name:en": null, "railway": "station", "ele": null, "operator:type": null, "layer": null, "addr:full": null, "addr:city": null, "source": null, "name:cs": null, "name:sk": null, "osm_id": 141962708, "osm_type": "nodes" }, "geometry": { "type": "Point", "coordinates": [ 17.2239081, 49.6166914 ] } },
{ "type": "Feature", "properties": { "name": "Kostelec na Hané", "name:en": null, "railway": "station", "ele": "240", "operator:type": null, "layer": null, "addr:full": null, "addr:city": null, "source": null, "name:cs": null, "name:sk": null, "osm_id": 84725163, "osm_type": "nodes" }, "geometry": { "type": "Point", "coordinates": [ 17.0650384, 49.5090733 ] } },
{ "type": "Feature", "properties": { "name": "Třebčín", "name:en": null, "railway": "station", "ele": null, "operator:type": null, "layer": null, "addr:full": null, "addr:city": null, "source": null, "name:cs": null, "name:sk": null, "osm_id": 5650239863, "osm_type": "nodes" }, "geometry": { "type": "Point", "coordinates": [ 17.1181903, 49.5507968 ] } },
{ "type": "Feature", "properties": { "name": "Hlubočky", "name:en": null, "railway": "station", "ele": null, "operator:type": null, "layer": null, "addr:full": null, "addr:city": null, "source": null, "name:cs": null, "name:sk": null, "osm_id": 258181583, "osm_type": "nodes" }, "geometry": { "type": "Point", "coordinates": [ 17.4084865, 49.6475954 ] } },
{ "type": "Feature", "properties": { "name": "Heřmánky", "name:en": null, "railway": "station", "ele": null, "operator:type": null, "layer": null, "addr:full": null, "addr:city": null, "source": null, "name:cs": null, "name:sk": null, "osm_id": 311318622, "osm_type": "nodes" }, "geometry": { "type": "Point", "coordinates": [ 17.7581909, 49.7135109 ] } },
{ "type": "Feature", "properties": { "name": "Fulnek", "name:en": null, "railway": "station", "ele": null, "operator:type": null, "layer": null, "addr:full": null, "addr:city": null, "source": null, "name:cs": null, "name:sk": null, "osm_id": 3286013251, "osm_type": "nodes" }, "geometry": { "type": "Point", "coordinates": [ 17.9127444, 49.7135213 ] } },
{ "type": "Feature", "properties": { "name": "Hlučín", "name:en": null, "railway": "station", "ele": null, "operator:type": null, "layer": null, "addr:full": null, "addr:city": null, "source": null, "name:cs": null, "name:sk": null, "osm_id": 266823145, "osm_type": "nodes" }, "geometry": { "type": "Point", "coordinates": [ 18.1941435, 49.9009605 ] } },
{ "type": "Feature", "properties": { "name": "Kravaře ve Slezsku", "name:en": null, "railway": "station", "ele": null, "operator:type": null, "layer": null, "addr:full": null, "addr:city": null, "source": null, "name:cs": null, "name:sk": null, "osm_id": 5646226084, "osm_type": "nodes" }, "geometry": { "type": "Point", "coordinates": [ 18.0099851, 49.9349665 ] } },
{ "type": "Feature", "properties": { "name": "Štítina", "name:en": null, "railway": "station", "ele": null, "operator:type": null, "layer": null, "addr:full": null, "addr:city": null, "source": null, "name:cs": null, "name:sk": null, "osm_id": 674723124, "osm_type": "nodes" }, "geometry": { "type": "Point", "coordinates": [ 18.005773, 49.9129688 ] } },
{ "type": "Feature", "properties": { "name": "Studénka", "name:en": null, "railway": "station", "ele": null, "operator:type": null, "layer": null, "addr:full": null, "addr:city": null, "source": "cuzk:km", "name:cs": null, "name:sk": null, "osm_id": 3268545288, "osm_type": "nodes" }, "geometry": { "type": "Point", "coordinates": [ 18.066607, 49.7075635 ] } },
{ "type": "Feature", "properties": { "name": "Hradec nad Moravicí", "name:en": null, "railway": "station", "ele": null, "operator:type": null, "layer": null, "addr:full": null, "addr:city": null, "source": null, "name:cs": null, "name:sk": null, "osm_id": 266911372, "osm_type": "nodes" }, "geometry": { "type": "Point", "coordinates": [ 17.8759703, 49.8775941 ] } },
{ "type": "Feature", "properties": { "name": "Písečná", "name:en": null, "railway": "station", "ele": null, "operator:type": null, "layer": null, "addr:full": null, "addr:city": null, "source": null, "name:cs": null, "name:sk": null, "osm_id": 278876989, "osm_type": "nodes" }, "geometry": { "type": "Point", "coordinates": [ 17.2599592, 50.2788227 ] } },
{ "type": "Feature", "properties": { "name": "Háj ve Slezsku", "name:en": null, "railway": "station", "ele": null, "operator:type": null, "layer": null, "addr:full": null, "addr:city": null, "source": null, "name:cs": null, "name:sk": null, "osm_id": 266511233, "osm_type": "nodes" }, "geometry": { "type": "Point", "coordinates": [ 18.0940855, 49.9011907 ] } },
{ "type": "Feature", "properties": { "name": "Veřovice", "name:en": null, "railway": "station", "ele": null, "operator:type": null, "layer": null, "addr:full": null, "addr:city": null, "source": null, "name:cs": null, "name:sk": null, "osm_id": 3256441427, "osm_type": "nodes" }, "geometry": { "type": "Point", "coordinates": [ 18.1331012, 49.5368967 ] } },
{ "type": "Feature", "properties": { "name": "Příbor", "name:en": null, "railway": "station", "ele": null, "operator:type": null, "layer": null, "addr:full": null, "addr:city": null, "source": null, "name:cs": null, "name:sk": null, "osm_id": 3273436279, "osm_type": "nodes" }, "geometry": { "type": "Point", "coordinates": [ 18.1422459, 49.635923 ] } },
{ "type": "Feature", "properties": { "name": "Děhylov", "name:en": null, "railway": "station", "ele": null, "operator:type": null, "layer": null, "addr:full": null, "addr:city": null, "source": null, "name:cs": null, "name:sk": null, "osm_id": 3476911147, "osm_type": "nodes" }, "geometry": { "type": "Point", "coordinates": [ 18.1711427, 49.8804531 ] } },
{ "type": "Feature", "properties": { "name": "Opava-Komárov", "name:en": null, "railway": "station", "ele": null, "operator:type": null, "layer": null, "addr:full": null, "addr:city": null, "source": null, "name:cs": null, "name:sk": null, "osm_id": 410713338, "osm_type": "nodes" }, "geometry": { "type": "Point", "coordinates": [ 17.9582417, 49.9175544 ] } },
{ "type": "Feature", "properties": { "name": "Skalice nad Svitavou", "name:en": null, "railway": "station", "ele": "310", "operator:type": null, "layer": null, "addr:full": null, "addr:city": null, "source": null, "name:cs": null, "name:sk": null, "osm_id": 5243312282, "osm_type": "nodes" }, "geometry": { "type": "Point", "coordinates": [ 16.6101146, 49.4799309 ] } },
{ "type": "Feature", "properties": { "name": "Dobruška", "name:en": null, "railway": "station", "ele": null, "operator:type": null, "layer": null, "addr:full": null, "addr:city": null, "source": null, "name:cs": null, "name:sk": null, "osm_id": 7408284054, "osm_type": "nodes" }, "geometry": { "type": "Point", "coordinates": [ 16.1520626, 50.2895161 ] } },
{ "type": "Feature", "properties": { "name": "Šebetov", "name:en": null, "railway": "station", "ele": null, "operator:type": null, "layer": null, "addr:full": null, "addr:city": null, "source": null, "name:cs": null, "name:sk": null, "osm_id": 5282656250, "osm_type": "nodes" }, "geometry": { "type": "Point", "coordinates": [ 16.6993941, 49.5540825 ] } },
{ "type": "Feature", "properties": { "name": "Blansko", "name:en": null, "railway": "station", "ele": "275", "operator:type": null, "layer": null, "addr:full": null, "addr:city": null, "source": null, "name:cs": null, "name:sk": null, "osm_id": 4972481988, "osm_type": "nodes" }, "geometry": { "type": "Point", "coordinates": [ 16.6471477, 49.3525292 ] } },
{ "type": "Feature", "properties": { "name": "Skrochovice", "name:en": null, "railway": "station", "ele": null, "operator:type": null, "layer": null, "addr:full": null, "addr:city": null, "source": null, "name:cs": null, "name:sk": null, "osm_id": 690739704, "osm_type": "nodes" }, "geometry": { "type": "Point", "coordinates": [ 17.7771158, 50.0182283 ] } },
{ "type": "Feature", "properties": { "name": "Slezské Rudoltice", "name:en": null, "railway": "station", "ele": null, "operator:type": null, "layer": null, "addr:full": null, "addr:city": null, "source": null, "name:cs": null, "name:sk": null, "osm_id": 311849810, "osm_type": "nodes" }, "geometry": { "type": "Point", "coordinates": [ 17.6835168, 50.2121456 ] } },
{ "type": "Feature", "properties": { "name": "Cerekvice nad Loučnou", "name:en": null, "railway": "station", "ele": null, "operator:type": null, "layer": null, "addr:full": null, "addr:city": null, "source": null, "name:cs": null, "name:sk": null, "osm_id": 308868026, "osm_type": "nodes" }, "geometry": { "type": "Point", "coordinates": [ 16.2062217, 49.9057178 ] } },
{ "type": "Feature", "properties": { "name": "Újezd u Chocně", "name:en": null, "railway": "station", "ele": null, "operator:type": null, "layer": null, "addr:full": null, "addr:city": null, "source": null, "name:cs": null, "name:sk": null, "osm_id": 269734294, "osm_type": "nodes" }, "geometry": { "type": "Point", "coordinates": [ 16.1788815, 50.0318287 ] } },
{ "type": "Feature", "properties": { "name": "Hostašovice", "name:en": null, "railway": "station", "ele": null, "operator:type": null, "layer": null, "addr:full": null, "addr:city": null, "source": null, "name:cs": null, "name:sk": null, "osm_id": 3256441423, "osm_type": "nodes" }, "geometry": { "type": "Point", "coordinates": [ 18.0166035, 49.5210205 ] } },
{ "type": "Feature", "properties": { "name": "Svatoňovice", "name:en": null, "railway": "station", "ele": null, "operator:type": null, "layer": null, "addr:full": null, "addr:city": null, "source": null, "name:cs": null, "name:sk": null, "osm_id": 311818644, "osm_type": "nodes" }, "geometry": { "type": "Point", "coordinates": [ 17.6676603, 49.7991735 ] } },
{ "type": "Feature", "properties": { "name": "Osoblaha", "name:en": null, "railway": "station", "ele": null, "operator:type": null, "layer": null, "addr:full": null, "addr:city": null, "source": null, "name:cs": null, "name:sk": null, "osm_id": 311852945, "osm_type": "nodes" }, "geometry": { "type": "Point", "coordinates": [ 17.7224544, 50.2682098 ] } },
{ "type": "Feature", "properties": { "name": "Huštěnovice", "name:en": null, "railway": "station", "ele": null, "operator:type": null, "layer": null, "addr:full": null, "addr:city": null, "source": null, "name:cs": null, "name:sk": null, "osm_id": 26190281, "osm_type": "nodes" }, "geometry": { "type": "Point", "coordinates": [ 17.4651976, 49.1150458 ] } },
{ "type": "Feature", "properties": { "name": "Řikonín", "name:en": null, "railway": "station", "ele": null, "operator:type": null, "layer": null, "addr:full": null, "addr:city": null, "source": null, "name:cs": null, "name:sk": null, "osm_id": 5252561507, "osm_type": "nodes" }, "geometry": { "type": "Point", "coordinates": [ 16.3083683, 49.365209 ] } },
{ "type": "Feature", "properties": { "name": "Holoubkov", "name:en": null, "railway": "station", "ele": null, "operator:type": null, "layer": null, "addr:full": null, "addr:city": null, "source": null, "name:cs": null, "name:sk": null, "osm_id": 1364140500, "osm_type": "nodes" }, "geometry": { "type": "Point", "coordinates": [ 13.6999575, 49.7740475 ] } },
{ "type": "Feature", "properties": { "name": "Kařízek", "name:en": null, "railway": "station", "ele": null, "operator:type": null, "layer": null, "addr:full": null, "addr:city": null, "source": null, "name:cs": null, "name:sk": null, "osm_id": 24685076, "osm_type": "nodes" }, "geometry": { "type": "Point", "coordinates": [ 13.7675224, 49.8008722 ] } },
{ "type": "Feature", "properties": { "name": "Jindřichov na Moravě", "name:en": null, "railway": "station", "ele": null, "operator:type": null, "layer": null, "addr:full": null, "addr:city": null, "source": null, "name:cs": null, "name:sk": null, "osm_id": 5654336142, "osm_type": "nodes" }, "geometry": { "type": "Point", "coordinates": [ 16.9892822, 50.0990822 ] } },
{ "type": "Feature", "properties": { "name": "Kájov", "name:en": null, "railway": "station", "ele": null, "operator:type": null, "layer": null, "addr:full": null, "addr:city": null, "source": null, "name:cs": "Kájov", "name:sk": null, "osm_id": 514661246, "osm_type": "nodes" }, "geometry": { "type": "Point", "coordinates": [ 14.2654059, 48.813015 ] } },
{ "type": "Feature", "properties": { "name": "Letohrad", "name:en": null, "railway": "station", "ele": "420", "operator:type": null, "layer": null, "addr:full": null, "addr:city": null, "source": null, "name:cs": null, "name:sk": null, "osm_id": 12564003388, "osm_type": "nodes" }, "geometry": { "type": "Point", "coordinates": [ 16.5079129, 50.0313775 ] } },
{ "type": "Feature", "properties": { "name": "Šumperk", "name:en": null, "railway": "station", "ele": null, "operator:type": null, "layer": null, "addr:full": null, "addr:city": null, "source": null, "name:cs": null, "name:sk": null, "osm_id": 3009150288, "osm_type": "nodes" }, "geometry": { "type": "Point", "coordinates": [ 16.9831313, 49.9619376 ] } },